time(millisecond),ModifyDate,GPSLatitude,GPSLongitude,height_above_takeoff(feet),height_above_ground_at_drone_location(feet),ground_elevation_at_drone_location(feet),AbsoluteAltitude,height_sonar(feet),speed(mph),distance(feet),mileage(feet),satellites,gpslevel,voltage(v),max_altitude(feet),max_ascent(feet),max_speed(mph),max_distance(feet), xSpeed(mph), ySpeed(mph), zSpeed(mph), compass_heading(degrees), pitch(degrees), roll(degrees),isPhoto,isVideo,rc_elevator,rc_aileron,rc_throttle,rc_rudder,rc_elevator(percent),rc_aileron(percent),rc_throttle(percent),rc_rudder(percent),gimbal_heading(degrees),gimbal_pitch(degrees),battery_percent,voltageCell1,voltageCell2,voltageCell3,voltageCell4,voltageCell5,voltageCell6,current(A),battery_temperature(f),altitude(feet),ascent(feet),flycStateRaw,flycState,message
0,2022-06-18 16:42:58,0,0,0,Available with any HD 360 subscription,Available with any HD 360 subscription,10830.894676641,0.328084,0,0,0,5,0,0,10830.894676641,0,0,0,0,0,0,91.4,0.3,1.3,0,0,507,364,794,1246,-78,-100,-35,34,95.3,0,99,4.286,4.284,4.286,4.282,0,0,0,62.51,10830.894676641,0,41,Motors_Started,
100,2022-06-18 16:42:59,0,0,0,,,10830.894676641,0.328084,0,0,0,5,0,17.09,10830.894676641,0,0,0,0,0,0,91.3,0.3,1.3,0,0,838,716,1024,1024,-28,-47,0,0,93.7,0,99,4.286,4.284,4.286,4.282,0,0,1.216,62.51,10830.894676641,0,41,Motors_Started,
200,2022-06-18 16:42:59,0,0,0,,,10830.894676641,0.328084,0,0,0,5,0,17.09,10830.894676641,0,0,0,0,0,0,91.3,0.3,1.3,0,0,1024,1024,1024,1024,0,0,0,0,92.9,0,99,4.286,4.284,4.286,4.282,0,0,1.216,62.51,10830.894676641,0,41,Motors_Started,
300,2022-06-18 16:42:59,0,0,0,,,10830.894676641,0.328084,0,0,0,5,0,17.09,10830.894676641,0,0,0,0,0,0,91.3,0.3,1.3,0,0,1024,1024,1024,1024,0,0,0,0,92.9,0,99,4.286,4.284,4.286,4.282,0,0,1.216,62.51,10830.894676641,0,41,Motors_Started,
400,2022-06-18 16:42:59,0,0,0,,,10830.894676641,0.328084,0,0,0,5,0,17.09,10830.894676641,0,0,0,0,0,0,91.3,0.3,1.3,0,0,1024,1024,1024,1024,0,0,0,0,92.5,0,99,4.286,4.284,4.286,4.282,0,0,1.216,62.51,10830.894676641,0,41,Motors_Started,
500,2022-06-18 16:42:59,0,0,0,,,10830.894676641,0.328084,0,0,0,5,0,17.09,10830.894676641,0,0,0,0,0,0,91.2,0.3,1.3,0,0,1024,1024,1024,1024,0,0,0,0,92.3,0,99,4.286,4.284,4.286,4.282,0,0,1.216,62.51,10830.894676641,0,41,Motors_Started,
600,2022-06-18 16:42:59,0,0,0,,,10830.894676641,0.328084,0,0,0,5,0,17.09,10830.894676641,0,0,0,0,0,0,91.2,0.3,1.3,0,0,1024,1024,1024,1024,0,0,0,0,92.1,0,99,4.286,4.284,4.286,4.282,0,0,1.216,62.51,10830.894676641,0,41,Motors_Started,
700,2022-06-18 16:42:59,0,0,0,,,10830.894676641,0.328084,0,0,0,5,0,17.09,10830.894676641,0,0,0,0,0,0,91.2,0.3,1.3,0,0,1024,1024,1024,1024,0,0,0,0,92,0,99,4.286,4.284,4.286,4.282,0,0,1.216,62.51,10830.894676641,0,41,Motors_Started,
800,2022-06-18 16:42:59,0,0,0,,,10830.894676641,0.328084,0,0,0,5,0,17.09,10830.894676641,0,0,0,0,0,0,91.2,0.3,1.3,0,0,1024,1024,1024,1024,0,0,0,0,91.9,0,99,4.286,4.284,4.286,4.282,0,0,1.216,62.51,10830.894676641,0,41,Motors_Started,
900,2022-06-18 16:42:59,0,0,0,,,10830.894676641,0.328084,0,0,0,5,0,17.09,10830.894676641,0,0,0,0,0,0,91.1,0.3,1.3,0,0,1024,1024,1024,1024,0,0,0,0,91.8,0,99,4.286,4.284,4.286,4.282,0,0,1.216,62.51,10830.894676641,0,41,Motors_Started,
1000,2022-06-18 16:42:59,0,0,0,,,10830.894676641,0.328084,0,0,0,5,0,17.09,10830.894676641,0,0,0,0,0,0,91.2,0.3,1.3,0,0,1024,1024,1024,1024,0,0,0,0,91.8,0,99,4.286,4.284,4.286,4.282,0,0,1.216,62.51,10830.894676641,0,41,Motors_Started,
1100,2022-06-18 16:43:00,0,0,0,,,10830.894676641,0.328084,0,0,0,5,0,17.09,10830.894676641,0,0,0,0,0,0,91.1,0.3,1.3,0,0,1024,1024,1024,1024,0,0,0,0,91.7,0,99,4.285,4.283,4.286,4.282,0,0,1.212,62.51,10830.894676641,0,41,Motors_Started,Setting new Return-To-Home altitude to 150m (492 ft). Data Recorder File Index is 281. Setting new Maximum Flight Altitude to 8m (26 ft)
1200,2022-06-18 16:43:00,0,0,0,,,10830.894676641,0.328084,0,0,0,5,0,17.09,10830.894676641,0,0,0,0,0,0,91.1,0.2,1.3,0,0,1024,1024,1024,1024,0,0,0,0,91.7,0,99,4.285,4.283,4.286,4.282,0,0,1.212,62.51,10830.894676641,0,41,Motors_Started,
1300,2022-06-18 16:43:00,0,0,0,,,10830.894676641,0.328084,0,0,0,5,0,17.09,10830.894676641,0,0,0,0,0,0,91.1,0.3,1.3,0,0,1024,1024,1024,1024,0,0,0,0,91.7,0,99,4.285,4.283,4.286,4.282,0,0,1.212,62.51,10830.894676641,0,41,Motors_Started,
1400,2022-06-18 16:43:00,0,0,0,,,10830.894676641,0.328084,0,0,0,5,0,17.09,10830.894676641,0,0,0,0,0,0,91.1,0.2,1.3,0,0,1024,1024,1024,1024,0,0,0,0,91.6,0,99,4.285,4.283,4.286,4.282,0,0,1.212,62.51,10830.894676641,0,41,Motors_Started,
1500,2022-06-18 16:43:00,0,0,0,,,10830.894676641,0.328084,0,0,0,5,0,17.09,10830.894676641,0,0,0,0,0,0,91,0.2,1.4,0,0,1024,1024,1024,1024,0,0,0,0,91.6,0,99,4.285,4.283,4.286,4.282,0,0,1.212,62.51,10830.894676641,0,10,Assisted_Takeoff,
1600,2022-06-18 16:43:00,0,0,0,,,10830.894676641,0.328084,0,0,0,5,0,17.09,10830.894676641,0,0,0,0,0,0,91,0.2,1.3,0,0,1024,1024,1024,1024,0,0,0,0,91.6,0,99,4.285,4.283,4.286,4.282,0,0,1.212,62.51,10830.894676641,0,10,Assisted_Takeoff,
1700,2022-06-18 16:43:00,0,0,0,,,10830.894676641,0.328084,0,0,0,5,0,17.09,10830.894676641,0,0,0,0,0,0,91,0.3,1.3,0,0,1024,1024,1024,1024,0,0,0,0,91.5,0,99,4.285,4.283,4.286,4.282,0,0,1.212,62.51,10830.894676641,0,10,Assisted_Takeoff,
1800,2022-06-18 16:43:00,0,0,0,,,10830.894676641,0.328084,0,0,0,5,0,17.09,10830.894676641,0,0,0,0,0,0,91,0.3,1.3,0,0,1024,1024,1024,1024,0,0,0,0,91.5,0,99,4.285,4.283,4.286,4.282,0,0,1.212,62.51,10830.894676641,0,10,Assisted_Takeoff,
1900,2022-06-18 16:43:00,0,0,0,,,10830.894676641,0.328084,0,0,0,5,0,17.09,10830.894676641,0,0,0,0,0,0,91,0.3,1.3,0,0,1024,1024,1024,1024,0,0,0,0,91.5,0,99,4.285,4.283,4.286,4.282,0,0,1.212,62.51,10830.894676641,0,10,Assisted_Takeoff,
2000,2022-06-18 16:43:00,0,0,0,,,10830.894676641,0.328084,0,0,0,5,0,17.09,10830.894676641,0,0,0,0,0,0,91,0.3,1.3,0,0,1024,1024,1024,1024,0,0,0,0,91.5,0,99,4.285,4.283,4.286,4.282,0,0,1.212,62.51,10830.894676641,0,10,Assisted_Takeoff,
2100,2022-06-18 16:43:01,0,0,0,,,10830.894676641,0.328084,0,0,0,5,0,16.98,10830.894676641,0,0,0,0,0,0,90.9,0.3,1.3,0,0,1024,1024,1024,1024,0,0,0,0,91.5,0,99,4.285,4.283,4.286,4.282,0,0,3.572,62.51,10830.894676641,0,10,Assisted_Takeoff,
2200,2022-06-18 16:43:01,0,0,0,,,10830.894676641,0.328084,0,0,0,5,0,16.98,10830.894676641,0,0,0,0,0,0,90.9,0.3,1.3,0,0,1024,1024,1024,1024,0,0,0,0,91.5,0,99,4.285,4.283,4.286,4.282,0,0,3.572,62.51,10830.894676641,0,10,Assisted_Takeoff,
2300,2022-06-18 16:43:01,0,0,0,,,10830.894676641,0.328084,0,0,0,5,0,16.98,10830.894676641,0,0,0,0,0,0,90.9,0.3,1.3,0,0,1024,1024,1024,1024,0,0,0,0,91.4,0,99,4.285,4.283,4.286,4.282,0,0,3.572,62.51,10830.894676641,0,10,Assisted_Takeoff,
2400,2022-06-18 16:43:01,0,0,0,,,10830.894676641,0.328084,0,0,0,5,0,16.98,10830.894676641,0,0,0,0,0,0,90.9,0.3,1.3,0,0,1024,1024,1024,1024,0,0,0,0,91.4,0,99,4.285,4.283,4.286,4.282,0,0,3.572,62.51,10830.894676641,0,10,Assisted_Takeoff,
2500,2022-06-18 16:43:01,0,0,0,,,10830.894676641,0.328084,0,0,0,5,0,16.98,10830.894676641,0,0,0,0,0,0,90.9,0.3,1.3,0,0,1024,1024,1024,1024,0,0,0,0,91.4,0,99,4.285,4.283,4.286,4.282,0,0,3.572,62.51,10830.894676641,0,10,Assisted_Takeoff,
2600,2022-06-18 16:43:01,0,0,0,,,10830.894676641,0.328084,0,0,0,5,0,16.98,10830.894676641,0,0,0,0,0,0,90.9,0.3,1.3,0,0,1024,1024,1024,1024,0,0,0,0,91.4,0,99,4.285,4.283,4.286,4.282,0,0,3.572,62.51,10830.894676641,0,10,Assisted_Takeoff,
2700,2022-06-18 16:43:01,0,0,0,,,10830.894676641,0.328084,0,0,0,5,0,16.98,10830.894676641,0,0,0,0,0,0,90.9,0.3,1.3,0,0,1024,1024,1026,1024,0,0,0,0,91.4,0,99,4.285,4.283,4.286,4.282,0,0,3.572,62.51,10830.894676641,0,10,Assisted_Takeoff,
2800,2022-06-18 16:43:01,0,0,0,,,10830.894676641,0.328084,0,0,0,5,0,16.98,10830.894676641,0,0,0,0,0,0,90.8,0.3,1.3,0,0,1024,1024,1047,1024,0,0,3,0,91.4,0,99,4.285,4.283,4.286,4.282,0,0,3.572,62.51,10830.894676641,0,10,Assisted_Takeoff,
2900,2022-06-18 16:43:01,0,0,0,,,10830.894676641,0.328084,0,0,0,5,0,16.98,10830.894676641,0,0,0,0,0,0,90.8,0.3,1.3,0,0,1024,1024,1045,1024,0,0,3,0,91.4,0,99,4.285,4.283,4.286,4.282,0,0,3.572,62.51,10830.894676641,0,10,Assisted_Takeoff,
3000,2022-06-18 16:43:01,0,0,0,,,10830.894676641,0.328084,0,0,0,5,0,16.98,10830.894676641,0,0,0,0,0,0,90.8,0.3,1.3,0,0,1024,1024,1065,1024,0,0,6,0,91.4,0,99,4.285,4.283,4.286,4.282,0,0,3.572,62.51,10830.894676641,0,10,Assisted_Takeoff,
3100,2022-06-18 16:43:02,0,0,0,,,10830.894676641,0.328084,0,0,0,5,0,17.035,10830.894676641,0,0,0,0,0,0,90.8,0.3,1.3,0,0,1024,1024,1089,1024,0,0,10,0,91.4,0,99,4.229,4.248,4.246,4.231,0,0,3.572,62.51,10830.894676641,0,10,Assisted_Takeoff,
3200,2022-06-18 16:43:02,0,0,0,,,10830.894676641,0.328084,0,0,0,5,0,17.035,10830.894676641,0,0,0,0,0,0,90.8,0.3,1.3,0,0,1024,1024,1107,1024,0,0,13,0,91.4,0,99,4.229,4.248,4.246,4.231,0,0,3.572,62.51,10830.894676641,0,10,Assisted_Takeoff,
3300,2022-06-18 16:43:02,0,0,0,,,10830.894676641,0.328084,0,0,0,5,0,17.035,10830.894676641,0,0,0,0,0,0,90.8,0.3,1.3,0,0,1024,1024,1112,1024,0,0,13,0,91.4,0,99,4.229,4.248,4.246,4.231,0,0,3.572,62.51,10830.894676641,0,10,Assisted_Takeoff,
3400,2022-06-18 16:43:02,0,0,0,,,10830.894676641,0.328084,0,0,0,5,0,17.035,10830.894676641,0,0,0,0,0,0,90.8,0.3,1.3,0,0,1024,1024,1118,1024,0,0,14,0,91.4,0,99,4.229,4.248,4.246,4.231,0,0,3.572,62.51,10830.894676641,0,10,Assisted_Takeoff,
3500,2022-06-18 16:43:02,0,0,0,,,10830.894676641,0.328084,0,0,0,5,0,17.035,10830.894676641,0,0,0,0,0,0,90.8,0.3,1.3,0,0,1024,1024,1132,1024,0,0,16,0,91.4,0,99,4.229,4.248,4.246,4.231,0,0,3.572,62.51,10830.894676641,0,10,Assisted_Takeoff,
3600,2022-06-18 16:43:02,0,0,0,,,10830.894676641,0.328084,0,0,0,5,0,17.035,10830.894676641,0,0,0,0,0,0,90.7,0.3,1.3,0,0,1024,1024,1156,1024,0,0,20,0,91.3,0,99,4.229,4.248,4.246,4.231,0,0,3.572,62.51,10830.894676641,0,10,Assisted_Takeoff,
3700,2022-06-18 16:43:02,0,0,0,,,10830.894676641,0.328084,0,0,0,5,0,17.035,10830.894676641,0,0,0,0,0,0,90.7,0.3,1.3,0,0,1024,1024,1178,1024,0,0,23,0,91.3,0,99,4.229,4.248,4.246,4.231,0,0,3.572,62.51,10830.894676641,0,10,Assisted_Takeoff,
3800,2022-06-18 16:43:02,0,0,0,,,10830.894676641,0.328084,0,0,0,5,0,17.035,10830.894676641,0,0,0,0,0,0,90.7,0.3,1.3,0,0,1024,1024,1190,1024,0,0,25,0,91.3,0,99,4.229,4.248,4.246,4.231,0,0,3.572,62.51,10830.894676641,0,10,Assisted_Takeoff,
3900,2022-06-18 16:43:02,0,0,0,,,10830.894676641,0.328084,0,0,0,5,0,17.035,10830.894676641,0,0,0,0,0,0,90.7,0.2,1.3,0,0,1024,1024,1195,1024,0,0,26,0,91.3,0,99,4.229,4.248,4.246,4.231,0,0,3.572,62.51,10830.894676641,0,10,Assisted_Takeoff,
4000,2022-06-18 16:43:02,0,0,0,,,10830.894676641,0.328084,0,0,0,5,0,17.035,10830.894676641,0,0,0,0,0,0,90.6,0.3,1.3,0,0,1024,1024,1191,1024,0,0,25,0,91.3,0,99,4.229,4.248,4.246,4.231,0,0,3.572,62.51,10830.894676641,0,10,Assisted_Takeoff,
4100,2022-06-18 16:43:03,0,0,0,,,10830.894676641,0.328084,0,0,0,5,0,17.062,10830.894676641,0,0,0,0,0,0,90.6,0.2,1.2,0,0,1024,1024,1198,1024,0,0,26,0,91.3,0,99,4.276,4.273,4.277,4.272,0,0,1.562,62.51,10830.894676641,0,10,Assisted_Takeoff,
4200,2022-06-18 16:43:03,0,0,0,,,10830.894676641,0.328084,0,0,0,5,0,17.062,10830.894676641,0,0,0,0,0,0,90.4,-0.3,0.9,0,0,1024,1024,1200,1024,0,0,27,0,91.3,0,99,4.276,4.273,4.277,4.272,0,0,1.562,62.51,10830.894676641,0,10,Assisted_Takeoff,
4300,2022-06-18 16:43:03,0,0,0,,,10830.894676641,0.328084,0,0,0,5,0,17.062,10830.894676641,0,0,0,0,0,0,90,-0.9,0.9,0,0,1024,1024,1200,1024,0,0,27,0,91.3,0,99,4.276,4.273,4.277,4.272,0,0,1.562,62.51,10830.894676641,0,10,Assisted_Takeoff,
4400,2022-06-18 16:43:03,0,0,0,,,10830.894676641,0.328084,0.223694,0,0,5,0,17.062,10830.894676641,0,0.223694,0,0,0.223694,-0.223694,89.7,-0.8,1.9,0,0,1024,1024,1215,1024,0,0,29,0,91.3,0,99,4.276,4.273,4.277,4.272,0,0,1.562,62.51,10830.894676641,0,10,Assisted_Takeoff,
4500,2022-06-18 16:43:03,0,0,0,,,10830.894676641,0.328084,0.223694,0,0,5,0,17.062,10830.894676641,0,0.223694,0,0,0.223694,-0.447388,89.7,-0.2,0.6,0,0,1169,1024,1211,1024,22,0,28,0,91.2,0,99,4.276,4.273,4.277,4.272,0,0,1.562,62.51,10830.894676641,0,6,P-GPS,
4600,2022-06-18 16:43:03,0,0,0,,,10830.894676641,0.656168,0.447388,0,0,5,0,17.062,10830.894676641,0,0.447388,0,0,0.447388,-0.671082,89.6,0,-0.6,0,0,1365,1024,1216,1024,52,0,29,0,91.2,0,99,4.276,4.273,4.277,4.272,0,0,1.562,62.51,10830.894676641,0,6,P-GPS,
4700,2022-06-18 16:43:03,0,0,0,,,10830.894676641,0.656168,0.447388,0,0,5,0,17.062,10830.894676641,0,0.447388,0,0,0.447388,-0.894776,89.6,0.6,-0.1,0,0,1419,1024,1201,1024,60,0,27,0,91.2,0,99,4.276,4.273,4.277,4.272,0,0,1.562,62.51,10830.894676641,0,6,P-GPS,
4800,2022-06-18 16:43:03,0,0,0.328084,,,10831.222760641,0.984252,0.447388,0,0,5,0,17.062,10831.222760641,0.328084,0.447388,0,0,0.447388,-1.11847,89.5,-3.1,0.2,0,0,1453,1024,1198,1024,65,0,26,0,91.1,0,99,4.276,4.273,4.277,4.272,0,0,1.562,62.51,10831.222760641,0.328084,6,P-GPS,
4900,2022-06-18 16:43:03,0,0,0.328084,,,10831.222760641,0.984252,0.894776,0,0,5,0,17.062,10831.222760641,0.328084,0.894776,0,0,0.894776,-1.11847,89.4,-6.3,0.4,0,0,1450,1024,1199,1024,65,0,27,0,91.1,0,99,4.276,4.273,4.277,4.272,0,0,1.562,62.51,10831.222760641,0.328084,6,P-GPS,
5000,2022-06-18 16:43:03,0,0,0.656168,,,10831.550844641,1.312336,1.11847,0,0,5,0,17.062,10831.550844641,0.656168,1.11847,0,0,1.11847,-1.11847,89.4,-6.9,0.3,0,0,1453,1024,1205,1024,65,0,27,0,91,0,99,4.276,4.273,4.277,4.272,0,0,1.562,62.51,10831.550844641,0.656168,6,P-GPS,
5100,2022-06-18 16:43:04,0,0,0.656168,,,10831.550844641,1.312336,1.565858,0,0,5,0,16.208,10831.550844641,0.656168,1.565858,0,0,1.565858,-1.11847,89.4,-6.7,0.1,0,0,1457,1024,1199,1024,66,0,27,0,91,0,99,4.17,4.16,4.16,4.142,0,0,7.364,62.51,10831.550844641,0.656168,6,P-GPS,
5200,2022-06-18 16:43:04,0,0,0.984252,,,10831.878928641,1.64042,2.0356154,0,0,5,0,16.208,10831.878928641,0.984252,2.0356154,0,0.223694,2.013246,-1.11847,89.5,-6.7,1,0,0,1458,1024,1191,1024,66,0,25,0,91,0,99,4.17,4.16,4.16,4.142,0,0,7.364,62.51,10831.878928641,0.984252,6,P-GPS,
5300,2022-06-18 16:43:04,0,0,0.984252,,,10831.878928641,1.968504,2.460634,0,0,5,0,16.208,10831.878928641,0.984252,2.460634,0,0,2.460634,-1.11847,89.9,-5,1.3,0,0,1471,1024,1174,1024,68,0,23,0,90.9,0,99,4.17,4.16,4.16,4.142,0,0,7.364,62.51,10831.878928641,0.984252,6,P-GPS,
5400,2022-06-18 16:43:04,0,0,1.312336,,,10832.207012641,1.968504,2.684328,0,0,4,0,16.208,10832.207012641,1.312336,2.460634,0,0,2.684328,-1.11847,90.2,-2.5,0.6,0,0,1469,1024,1176,1024,67,0,23,0,90.9,0,99,4.17,4.16,4.16,4.142,0,0,7.364,62.51,10832.207012641,1.312336,6,P-GPS,
5500,2022-06-18 16:43:04,0,0,1.312336,,,10832.207012641,2.296588,2.684328,0,0,4,0,16.208,10832.207012641,1.312336,2.460634,0,0,2.684328,-1.11847,90,-2.1,0,0,0,1475,1024,1183,1024,68,0,24,0,90.9,0,99,4.17,4.16,4.16,4.142,0,0,7.364,62.51,10832.207012641,1.312336,6,P-GPS,
5600,2022-06-18 16:43:04,0,0,1.64042,,,10832.535096641,2.296588,2.684328,0,0,5,0,16.208,10832.535096641,1.64042,2.684328,0,0,2.684328,-1.11847,89.8,-4.4,0.1,0,0,1449,1024,1138,1024,64,0,17,0,90.9,0,99,4.17,4.16,4.16,4.142,0,0,7.364,62.51,10832.535096641,1.64042,6,P-GPS,
5800,2022-06-18 16:43:04,0,0,2.296588,,,10833.191264641,2.952756,2.684328,0,0,6,0,16.208,10833.191264641,2.296588,2.684328,0,0,3.131716,-1.565858,89.9,-5.4,0.3,0,0,1434,1024,1118,1024,62,0,14,0,90.9,0,99,4.17,4.16,4.16,4.142,0,0,7.364,62.51,10833.191264641,2.296588,6,P-GPS,
5900,2022-06-18 16:43:04,0,0,2.296588,,,10833.191264641,3.28084,3.35541,0,0,6,0,16.208,10833.191264641,2.296588,3.35541,0,0,3.35541,-1.565858,90,-6.7,-0.1,0,0,1406,1024,1111,1024,58,0,13,0,90.9,0,99,4.17,4.16,4.16,4.142,0,0,7.364,62.51,10833.191264641,2.296588,6,P-GPS,
6000,2022-06-18 16:43:04,0,0,2.624672,,,10833.519348641,3.28084,3.579104,0,0,6,0,16.208,10833.519348641,2.624672,3.579104,0,0,3.579104,-1.342164,90,-7.8,0.6,0,0,1364,1024,1095,1024,52,0,11,0,90.9,0,99,4.17,4.16,4.16,4.142,0,0,7.364,62.51,10833.519348641,2.624672,6,P-GPS,
6100,2022-06-18 16:43:04,0,0,2.952756,,,10833.847432641,3.608924,3.802798,0,0,6,0,16.125,10833.847432641,2.952756,3.802798,0,0,3.802798,-1.11847,90.1,-7.5,0.3,0,0,1277,1024,1080,1024,38,0,8,0,90.9,0,99,4.17,4.16,4.16,4.142,0,0,13.992,62.51,10833.847432641,2.952756,6,P-GPS,
6200,2022-06-18 16:43:05,0,0,2.952756,,,10833.847432641,3.608924,4.026492,0,0,6,0,16.125,10833.847432641,2.952756,4.026492,0,0,4.026492,-0.894776,90.2,-6.6,0,0,0,1193,1024,1024,1024,26,0,0,0,90.8,0,99,4.17,4.16,4.16,4.142,0,0,13.992,62.51,10833.847432641,2.952756,6,P-GPS,
6300,2022-06-18 16:43:05,0,0,3.28084,,,10834.175516641,3.937008,4.026492,0,0,6,0,16.125,10834.175516641,3.28084,4.026492,0,0,4.026492,-0.671082,90.2,-6.2,0.1,0,0,1193,1024,1024,1024,26,0,0,0,90.8,0,99,4.17,4.16,4.16,4.142,0,0,13.992,62.51,10834.175516641,3.28084,6,P-GPS,
6400,2022-06-18 16:43:05,0,0,3.28084,,,10834.175516641,3.937008,4.250186,0,0,6,0,16.125,10834.175516641,3.28084,4.250186,0,0,4.250186,-0.447388,90.3,-5.6,-0.4,0,0,1024,1024,1024,1024,0,0,0,0,90.8,0,99,4.17,4.16,4.16,4.142,0,0,13.992,62.51,10834.175516641,3.28084,6,P-GPS,
6500,2022-06-18 16:43:05,0,0,3.28084,,,10834.175516641,3.937008,4.250186,0,0,6,0,16.125,10834.175516641,3.28084,4.250186,0,0,4.250186,-0.223694,90.4,-3.1,-0.4,0,0,1024,1024,1024,1024,0,0,0,0,90.8,0,99,4.17,4.16,4.16,4.142,0,0,13.992,62.51,10834.175516641,3.28084,6,P-GPS,
6600,2022-06-18 16:43:05,0,0,3.28084,,,10834.175516641,0,4.250186,0,0,6,0,16.125,10834.175516641,3.28084,4.250186,0,0.223694,4.250186,-0.223694,90.5,1.8,0.5,0,0,1024,1024,1024,1024,0,0,0,0,90.8,0,99,4.17,4.16,4.16,4.142,0,0,13.992,62.51,10834.175516641,3.28084,6,P-GPS,
6700,2022-06-18 16:43:05,0,0,3.28084,,,10834.175516641,22.309712,3.802798,0,0,6,0,16.125,10834.175516641,3.28084,4.250186,0,0.223694,3.802798,0,90.6,7.7,0.7,0,0,1024,1024,1024,1024,0,0,0,0,90.8,0,99,4.17,4.16,4.16,4.142,0,0,13.992,62.51,10834.175516641,3.28084,6,P-GPS,
6800,2022-06-18 16:43:05,0,0,3.28084,,,10834.175516641,22.637796,3.35541,0,0,6,0,16.125,10834.175516641,3.28084,4.250186,0,0.223694,3.35541,0,90.6,11,-0.1,0,0,1024,1024,1024,1024,0,0,0,0,90.8,0,99,4.17,4.16,4.16,4.142,0,0,13.992,62.51,10834.175516641,3.28084,6,P-GPS,
6900,2022-06-18 16:43:05,0,0,3.28084,,,10834.175516641,22.637796,2.684328,0,0,6,0,16.125,10834.175516641,3.28084,4.250186,0,0.223694,2.684328,0,90.5,13.2,0.7,0,0,1024,1024,1024,1024,0,0,0,0,90.8,0,99,4.17,4.16,4.16,4.142,0,0,13.992,62.51,10834.175516641,3.28084,6,P-GPS,
7000,2022-06-18 16:43:05,0,0,3.28084,,,10834.175516641,22.637796,2.0356154,0,0,6,0,16.125,10834.175516641,3.28084,4.250186,0,0.223694,2.013246,0,90.4,13.5,1.9,0,0,1024,1024,1024,1024,0,0,0,0,90.8,0,99,4.17,4.16,4.16,4.142,0,0,13.992,62.51,10834.175516641,3.28084,6,P-GPS,
7100,2022-06-18 16:43:06,0,0,3.28084,,,10834.175516641,22.637796,1.5882274,0,0,6,0,16.235,10834.175516641,3.28084,4.250186,0,0.223694,1.565858,0,90.1,11.8,3.3,0,0,1024,1024,1024,1024,0,0,0,0,90.8,0,99,4.048,4.044,4.043,4.021,0,0,13.992,62.51,10834.175516641,3.28084,6,P-GPS,
7200,2022-06-18 16:43:06,0,0,3.28084,,,10834.175516641,22.637796,1.1408394,0,0,6,0,16.235,10834.175516641,3.28084,4.250186,0,0.223694,1.11847,0,89.8,9.5,4,0,0,1024,1024,1024,1024,0,0,0,0,90.7,0,99,4.048,4.044,4.043,4.021,0,0,13.992,62.51,10834.175516641,3.28084,6,P-GPS,
7300,2022-06-18 16:43:06,0,0,3.28084,,,10834.175516641,22.637796,0.894776,0,0,6,0,16.235,10834.175516641,3.28084,4.250186,0,0,0.894776,0,89.6,7.3,3.8,0,0,1024,1024,1024,1024,0,0,0,0,90.7,0,99,4.048,4.044,4.043,4.021,0,0,13.992,62.51,10834.175516641,3.28084,6,P-GPS,
7400,2022-06-18 16:43:06,0,0,3.28084,,,10834.175516641,22.637796,0.671082,0,0,6,0,16.235,10834.175516641,3.28084,4.250186,0,0,0.671082,0,89.6,5.6,2.6,0,0,1024,1024,1024,1024,0,0,0,0,90.7,0,99,4.048,4.044,4.043,4.021,0,0,13.992,62.51,10834.175516641,3.28084,6,P-GPS,
7500,2022-06-18 16:43:06,0,0,3.28084,,,10834.175516641,22.637796,0.447388,0,0,6,0,16.235,10834.175516641,3.28084,4.250186,0,0,0.447388,0,89.7,4.6,0.6,0,0,1024,1024,1024,1024,0,0,0,0,90.6,0,99,4.048,4.044,4.043,4.021,0,0,13.992,62.51,10834.175516641,3.28084,6,P-GPS,
7600,2022-06-18 16:43:06,0,0,3.28084,,,10834.175516641,22.637796,0.223694,0,0,6,0,16.235,10834.175516641,3.28084,4.250186,0,0,0.223694,0,90,4,-0.6,0,0,1024,1024,1024,1024,0,0,0,0,90.6,0,99,4.048,4.044,4.043,4.021,0,0,13.992,62.51,10834.175516641,3.28084,6,P-GPS,
7700,2022-06-18 16:43:06,0,0,3.28084,,,10834.175516641,22.637796,0.223694,0,0,6,0,16.235,10834.175516641,3.28084,4.250186,0,0.223694,0,0,90.1,2.3,-0.1,0,0,1024,1024,1024,1024,0,0,0,0,90.6,0,99,4.048,4.044,4.043,4.021,0,0,13.992,62.51,10834.175516641,3.28084,6,P-GPS,
7800,2022-06-18 16:43:06,0,0,3.28084,,,10834.175516641,22.96588,0.223694,0,0,6,0,16.235,10834.175516641,3.28084,4.250186,0,0.223694,0,0,90,0.4,1.2,0,0,1024,1024,1024,1024,0,0,0,0,90.6,0,99,4.048,4.044,4.043,4.021,0,0,13.992,62.51,10834.175516641,3.28084,6,P-GPS,
7900,2022-06-18 16:43:06,0,0,2.952756,,,10833.847432641,22.96588,0.223694,0,0,6,0,16.235,10834.175516641,3.28084,4.250186,0,0,0.223694,0,89.9,0.4,1.8,0,0,1024,1024,1024,1024,0,0,0,0,90.6,0,99,4.048,4.044,4.043,4.021,0,0,13.992,62.51,10833.847432641,2.952756,6,P-GPS,
8000,2022-06-18 16:43:06,0,0,2.952756,,,10833.847432641,22.637796,0,0,0,6,0,16.235,10834.175516641,3.28084,4.250186,0,0,0,0,89.7,1,1.8,0,0,1024,1024,1024,1024,0,0,0,0,90.6,0,99,4.048,4.044,4.043,4.021,0,0,13.992,62.51,10833.847432641,2.952756,6,P-GPS,
8100,2022-06-18 16:43:07,0,0,2.952756,,,10833.847432641,22.637796,0,0,0,6,0,15.932,10834.175516641,3.28084,4.250186,0,0,0,0,89.7,1.7,1.7,0,0,1024,1024,1024,1024,0,0,0,0,90.6,0,99,4.049,4.047,4.054,4.031,0,0,12.762,64.31,10833.847432641,2.952756,6,P-GPS,
8200,2022-06-18 16:43:07,0,0,2.952756,,,10833.847432641,22.637796,0,0,0,6,0,15.932,10834.175516641,3.28084,4.250186,0,0,0,0,89.8,2.1,2.1,0,0,1024,1024,1024,1024,0,0,0,0,90.6,0,99,4.049,4.047,4.054,4.031,0,0,12.762,64.31,10833.847432641,2.952756,6,P-GPS,
8300,2022-06-18 16:43:07,0,0,2.952756,,,10833.847432641,22.96588,0,0,0,6,0,15.932,10834.175516641,3.28084,4.250186,0,0,0,0,89.9,1.6,1.7,0,0,1024,1024,1024,1024,0,0,0,0,90.6,0,99,4.049,4.047,4.054,4.031,0,0,12.762,64.31,10833.847432641,2.952756,6,P-GPS,
8400,2022-06-18 16:43:07,0,0,2.952756,,,10833.847432641,22.96588,0.223694,0,0,6,0,15.932,10834.175516641,3.28084,4.250186,0,0.223694,0,0,89.9,0.8,2,0,0,1024,1024,1024,1024,0,0,0,0,90.6,0,99,4.049,4.047,4.054,4.031,0,0,12.762,64.31,10833.847432641,2.952756,6,P-GPS,
8500,2022-06-18 16:43:07,0,0,2.952756,,,10833.847432641,22.96588,0,0,0,6,0,15.932,10834.175516641,3.28084,4.250186,0,0,0,0,89.6,0.2,2.2,0,0,1024,1024,1024,1024,0,0,0,0,90.6,0,99,4.049,4.047,4.054,4.031,0,0,12.762,64.31,10833.847432641,2.952756,6,P-GPS,
8600,2022-06-18 16:43:07,0,0,2.952756,,,10833.847432641,22.96588,0,0,0,6,0,15.932,10834.175516641,3.28084,4.250186,0,0,0,0,89.5,0.5,2.7,0,0,1024,1024,1024,1024,0,0,0,0,90.5,0,99,4.049,4.047,4.054,4.031,0,0,12.762,64.31,10833.847432641,2.952756,6,P-GPS,
8700,2022-06-18 16:43:07,0,0,2.952756,,,10833.847432641,22.96588,0,0,0,6,0,15.932,10834.175516641,3.28084,4.250186,0,0,0,0,89.5,1.4,3,0,0,1024,1024,1024,1024,0,0,0,0,90.5,0,99,4.049,4.047,4.054,4.031,0,0,12.762,64.31,10833.847432641,2.952756,6,P-GPS,
8800,2022-06-18 16:43:07,0,0,2.952756,,,10833.847432641,22.96588,0,0,0,6,0,15.932,10834.175516641,3.28084,4.250186,0,0,0,0,89.4,1.4,2.5,0,0,1024,1024,1024,1024,0,0,0,0,90.5,0,99,4.049,4.047,4.054,4.031,0,0,12.762,64.31,10833.847432641,2.952756,6,P-GPS,
8900,2022-06-18 16:43:07,0,0,2.952756,,,10833.847432641,22.96588,0,0,0,6,0,15.932,10834.175516641,3.28084,4.250186,0,0,0,0,89.5,1.7,0.9,0,0,1024,1024,1024,1024,0,0,0,0,90.5,0,99,4.049,4.047,4.054,4.031,0,0,12.762,64.31,10833.847432641,2.952756,6,P-GPS,
9000,2022-06-18 16:43:07,0,0,2.952756,,,10833.847432641,22.96588,0,0,0,6,0,15.932,10834.175516641,3.28084,4.250186,0,0,0,0,89.3,1.6,-0.2,0,0,1024,1024,1024,1024,0,0,0,0,90.5,0,99,4.049,4.047,4.054,4.031,0,0,12.762,64.31,10833.847432641,2.952756,6,P-GPS,
9100,2022-06-18 16:43:08,0,0,2.952756,,,10833.847432641,22.96588,0.223694,0,0,6,0,16.042,10834.175516641,3.28084,4.250186,0,0.223694,0,0,89.2,2,1.4,0,0,1024,1024,1024,1024,0,0,0,0,90.5,0,99,4.038,4.034,4.037,4.019,0,0,13.194,64.31,10833.847432641,2.952756,6,P-GPS,
9200,2022-06-18 16:43:08,0,0,2.952756,,,10833.847432641,22.96588,0,0,0,5,0,16.042,10834.175516641,3.28084,4.250186,0,0,0,0.223694,89.2,3,3.5,0,0,1024,1024,1024,1024,0,0,0,0,90.4,0,99,4.038,4.034,4.037,4.019,0,0,13.194,64.31,10833.847432641,2.952756,6,P-GPS,
9300,2022-06-18 16:43:08,0,0,2.952756,,,10833.847432641,22.96588,0,0,0,5,0,16.042,10834.175516641,3.28084,4.250186,0,0,0,0,89.3,2.8,3.5,0,0,1024,1024,1024,1024,0,0,0,0,90.4,0,99,4.038,4.034,4.037,4.019,0,0,13.194,64.31,10833.847432641,2.952756,6,P-GPS,
9400,2022-06-18 16:43:08,0,0,2.952756,,,10833.847432641,22.96588,0,0,0,5,0,16.042,10834.175516641,3.28084,4.250186,0,0,0,0,89.3,2.5,2,0,0,1024,1024,1024,1024,0,0,0,0,90.4,0,99,4.038,4.034,4.037,4.019,0,0,13.194,64.31,10833.847432641,2.952756,6,P-GPS,
9500,2022-06-18 16:43:08,0,0,2.952756,,,10833.847432641,22.96588,0,0,0,5,0,16.042,10834.175516641,3.28084,4.250186,0,0,0,0,89.3,2.6,0.5,0,0,1024,1024,1024,1024,0,0,0,0,90.3,0,99,4.038,4.034,4.037,4.019,0,0,13.194,64.31,10833.847432641,2.952756,6,P-GPS,
9600,2022-06-18 16:43:08,0,0,2.952756,,,10833.847432641,22.96588,0.3131716,0,0,6,0,16.042,10834.175516641,3.28084,4.250186,0,0.223694,0.223694,0,89.4,2.7,0.6,0,0,1024,1024,1024,1024,0,0,0,0,90.3,0,99,4.038,4.034,4.037,4.019,0,0,13.194,64.31,10833.847432641,2.952756,6,P-GPS,
9700,2022-06-18 16:43:08,0,0,2.952756,,,10833.847432641,22.96588,0.3131716,0,0,6,0,16.042,10834.175516641,3.28084,4.250186,0,0.223694,0.223694,-0.223694,89.6,3.3,2,0,0,1024,1024,1024,1024,0,0,0,0,90.3,0,99,4.038,4.034,4.037,4.019,0,0,13.194,64.31,10833.847432641,2.952756,6,P-GPS,
9800,2022-06-18 16:43:08,0,0,3.28084,,,10834.175516641,22.96588,0.223694,0,0,6,0,16.042,10834.175516641,3.28084,4.250186,0,0.223694,0,-0.223694,89.6,3,3.1,0,0,1024,1024,1024,1024,0,0,0,0,90.3,0,99,4.038,4.034,4.037,4.019,0,0,13.194,64.31,10834.175516641,3.28084,6,P-GPS,
9900,2022-06-18 16:43:08,0,0,3.28084,,,10834.175516641,22.96588,0,0,0,6,0,16.042,10834.175516641,3.28084,4.250186,0,0,0,-0.223694,89.6,3.1,2.2,0,0,1024,1024,1024,1024,0,0,0,0,90.3,0,99,4.038,4.034,4.037,4.019,0,0,13.194,64.31,10834.175516641,3.28084,6,P-GPS,
10000,2022-06-18 16:43:08,0,0,3.28084,,,10834.175516641,22.96588,0,0,0,6,0,16.042,10834.175516641,3.28084,4.250186,0,0,0,0,89.6,3.7,2.8,0,0,1024,1024,1024,1024,0,0,0,0,90.3,0,99,4.038,4.034,4.037,4.019,0,0,13.194,64.31,10834.175516641,3.28084,6,P-GPS,
10100,2022-06-18 16:43:09,0,0,3.28084,,,10834.175516641,22.96588,0,0,0,6,0,16.042,10834.175516641,3.28084,4.250186,0,0,0,0,89.6,3.4,3.5,0,0,1024,1024,1024,1024,0,0,0,0,90.3,0,99,4.038,4.034,4.037,4.019,0,0,13.194,64.31,10834.175516641,3.28084,6,P-GPS,
10200,2022-06-18 16:43:09,0,0,3.28084,,,10834.175516641,22.96588,0,0,0,6,0,16.042,10834.175516641,3.28084,4.250186,0,0,0,0,89.6,2.3,3.7,0,0,1024,1024,1024,1024,0,0,0,0,90.3,0,99,4.038,4.034,4.037,4.019,0,0,13.194,64.31,10834.175516641,3.28084,6,P-GPS,
10300,2022-06-18 16:43:09,0,0,3.28084,,,10834.175516641,22.96588,0,0,0,6,0,16.042,10834.175516641,3.28084,4.250186,0,0,0,0,89.8,2,2.5,0,0,1024,1024,1024,1024,0,0,0,0,90.3,0,99,4.038,4.034,4.037,4.019,0,0,13.194,64.31,10834.175516641,3.28084,6,P-GPS,
10400,2022-06-18 16:43:09,0,0,3.28084,,,10834.175516641,22.96588,0,0,0,6,0,16.042,10834.175516641,3.28084,4.250186,0,0,0,0,89.8,2.6,0.8,0,0,1024,1024,1024,1024,0,0,0,0,90.3,0,99,4.038,4.034,4.037,4.019,0,0,13.194,64.31,10834.175516641,3.28084,6,P-GPS,Maximum Flight Altitude Reached. Adjust altitude in MC Settings if required.
10500,2022-06-18 16:43:09,0,0,3.28084,,,10834.175516641,22.96588,0,0,0,6,0,16.042,10834.175516641,3.28084,4.250186,0,0,0,0.223694,89.7,2.6,1,0,0,1024,1024,1024,1024,0,0,0,0,90.3,0,99,4.038,4.034,4.037,4.019,0,0,13.194,64.31,10834.175516641,3.28084,6,P-GPS,
10600,2022-06-18 16:43:09,0,0,3.28084,,,10834.175516641,22.96588,0,0,0,6,0,16.042,10834.175516641,3.28084,4.250186,0,0,0,0,89.7,2.8,1.5,0,0,1024,1024,1024,1024,0,0,0,0,90.2,0,99,4.038,4.034,4.037,4.019,0,0,13.194,64.31,10834.175516641,3.28084,6,P-GPS,
10700,2022-06-18 16:43:09,0,0,3.28084,,,10834.175516641,22.96588,0,0,0,6,0,16.042,10834.175516641,3.28084,4.250186,0,0,0,0,89.7,2.8,1.7,0,0,1024,1024,1024,1024,0,0,0,0,90.3,0,99,4.038,4.034,4.037,4.019,0,0,13.194,64.31,10834.175516641,3.28084,6,P-GPS,
10800,2022-06-18 16:43:09,0,0,3.28084,,,10834.175516641,22.96588,0.223694,0,0,6,0,16.042,10834.175516641,3.28084,4.250186,0,-0.223694,0,0.223694,89.7,3.6,1.6,0,0,1024,1024,1024,1024,0,0,0,0,90.2,0,99,4.038,4.034,4.037,4.019,0,0,13.194,64.31,10834.175516641,3.28084,6,P-GPS,
10900,2022-06-18 16:43:09,0,0,3.28084,,,10834.175516641,22.96588,0.223694,0,0,6,0,16.042,10834.175516641,3.28084,4.250186,0,-0.223694,0,0,89.6,3.5,0.7,0,0,1024,1024,1024,1024,0,0,0,0,90.2,0,99,4.038,4.034,4.037,4.019,0,0,13.194,64.31,10834.175516641,3.28084,6,P-GPS,
11000,2022-06-18 16:43:09,0,0,3.28084,,,10834.175516641,22.96588,0.223694,0,0,6,0,16.042,10834.175516641,3.28084,4.250186,0,-0.223694,0,0,89.6,3.5,1.1,0,0,1024,1024,1024,1024,0,0,0,0,90.2,0,99,4.038,4.034,4.037,4.019,0,0,13.194,64.31,10834.175516641,3.28084,6,P-GPS,
11100,2022-06-18 16:43:10,0,0,3.28084,,,10834.175516641,22.96588,0.223694,0,0,6,0,16.015,10834.175516641,3.28084,4.250186,0,-0.223694,0,0,89.6,2.8,-0.3,0,0,1024,1024,1024,1024,0,0,0,0,90.2,0,99,4.038,4.031,4.033,4.016,0,0,12.944,64.31,10834.175516641,3.28084,6,P-GPS,
11300,2022-06-18 16:43:10,0,0,3.28084,,,10834.175516641,22.96588,0,0,0,6,0,16.015,10834.175516641,3.28084,4.250186,0,0,0,0,89.5,4.1,-0.3,0,0,1024,1024,1024,1024,0,0,0,0,90.2,0,99,4.038,4.031,4.033,4.016,0,0,12.944,64.31,10834.175516641,3.28084,6,P-GPS,
11400,2022-06-18 16:43:10,0,0,3.28084,,,10834.175516641,22.96588,0,0,0,6,0,16.015,10834.175516641,3.28084,4.250186,0,0,0,0,89.5,4.3,0.1,0,0,1024,1024,1024,1024,0,0,0,0,90.2,0,99,4.038,4.031,4.033,4.016,0,0,12.944,64.31,10834.175516641,3.28084,6,P-GPS,
11500,2022-06-18 16:43:10,0,0,3.608924,,,10834.503600641,22.96588,0,0,0,6,0,16.015,10834.503600641,3.608924,4.250186,0,0,0,-0.223694,89.6,3.5,1,0,0,1024,1024,1024,1024,0,0,0,0,90.2,0,99,4.038,4.031,4.033,4.016,0,0,12.944,64.31,10834.503600641,3.608924,6,P-GPS,
11600,2022-06-18 16:43:10,0,0,3.28084,,,10834.175516641,22.637796,0,0,0,6,0,16.015,10834.503600641,3.608924,4.250186,0,0,0,0,89.6,2.5,1.2,0,0,1024,1024,1024,1024,0,0,0,0,90.2,0,99,4.038,4.031,4.033,4.016,0,0,12.944,64.31,10834.175516641,3.28084,6,P-GPS,
11700,2022-06-18 16:43:10,0,0,3.28084,,,10834.175516641,22.637796,0,0,0,6,0,16.015,10834.503600641,3.608924,4.250186,0,0,0,0,89.6,1.9,0.7,0,0,1024,1024,1024,1024,0,0,0,0,90.2,0,99,4.038,4.031,4.033,4.016,0,0,12.944,64.31,10834.175516641,3.28084,6,P-GPS,
11800,2022-06-18 16:43:10,0,0,3.608924,,,10834.503600641,22.637796,0,0,0,6,0,16.015,10834.503600641,3.608924,4.250186,0,0,0,-0.223694,89.6,2.9,0.7,0,0,1024,1024,1024,1024,0,0,0,0,90.2,0,99,4.038,4.031,4.033,4.016,0,0,12.944,64.31,10834.503600641,3.608924,6,P-GPS,
11900,2022-06-18 16:43:10,0,0,3.608924,,,10834.503600641,22.637796,0.223694,0,0,6,0,16.015,10834.503600641,3.608924,4.250186,0,0.223694,0,0,89.6,3,2.7,0,0,1024,1024,1024,1024,0,0,0,0,90.2,0,99,4.038,4.031,4.033,4.016,0,0,12.944,64.31,10834.503600641,3.608924,6,P-GPS,
12000,2022-06-18 16:43:10,0,0,3.608924,,,10834.503600641,22.637796,0.223694,0,0,6,0,16.015,10834.503600641,3.608924,4.250186,0,0,-0.223694,0,89.6,1.8,3.6,0,0,1024,1024,1024,1024,0,0,0,0,90.2,0,99,4.038,4.031,4.033,4.016,0,0,12.944,64.31,10834.503600641,3.608924,6,P-GPS,
12100,2022-06-18 16:43:11,0,0,3.608924,,,10834.503600641,22.637796,0,0,0,6,0,16.042,10834.503600641,3.608924,4.250186,0,0,0,0,89.7,1.8,2.3,0,0,1024,1024,1024,1024,0,0,0,0,90.2,0,99,4.033,4.026,4.033,4.018,0,0,12.656,64.31,10834.503600641,3.608924,6,P-GPS,
12200,2022-06-18 16:43:11,0,0,3.608924,,,10834.503600641,22.637796,0.223694,0,0,6,0,16.042,10834.503600641,3.608924,4.250186,0,0,-0.223694,0,89.8,1.9,0.7,0,0,1024,1024,1024,1024,0,0,0,0,90.2,0,99,4.033,4.026,4.033,4.018,0,0,12.656,64.31,10834.503600641,3.608924,6,P-GPS,
12300,2022-06-18 16:43:11,0,0,3.608924,,,10834.503600641,22.637796,0.3131716,0,0,6,0,16.042,10834.503600641,3.608924,4.250186,0,0.223694,-0.223694,0,89.8,1.5,3.1,0,0,1024,1024,1024,1024,0,0,0,0,90.1,0,99,4.033,4.026,4.033,4.018,0,0,12.656,64.31,10834.503600641,3.608924,6,P-GPS,
12400,2022-06-18 16:43:11,0,0,3.608924,,,10834.503600641,22.637796,0.3131716,0,0,6,0,16.042,10834.503600641,3.608924,4.250186,0,0.223694,-0.223694,0,89.7,1.6,5,0,0,1024,1024,1024,1024,0,0,0,0,90.1,0,99,4.033,4.026,4.033,4.018,0,0,12.656,64.31,10834.503600641,3.608924,6,P-GPS,
12500,2022-06-18 16:43:11,0,0,3.608924,,,10834.503600641,22.309712,0.223694,0,0,6,0,16.042,10834.503600641,3.608924,4.250186,0,0,-0.223694,0.223694,89.7,1.8,3.2,0,0,1024,1024,1024,1024,0,0,0,0,90.1,0,99,4.033,4.026,4.033,4.018,0,0,12.656,64.31,10834.503600641,3.608924,6,P-GPS,
12600,2022-06-18 16:43:11,0,0,3.937008,,,10834.831684641,22.309712,0.223694,0,0,6,0,16.042,10834.831684641,3.937008,4.250186,0,0,-0.223694,0,89.7,1.5,2.7,0,0,1024,1024,1024,1024,0,0,0,0,90.1,0,99,4.033,4.026,4.033,4.018,0,0,12.656,64.31,10834.831684641,3.937008,6,P-GPS,
12700,2022-06-18 16:43:11,0,0,3.937008,,,10834.831684641,22.309712,0.223694,0,0,6,0,16.042,10834.831684641,3.937008,4.250186,0,0.223694,0,0,89.9,1.7,3.1,0,0,1024,1024,1024,1024,0,0,0,0,90.1,0,99,4.033,4.026,4.033,4.018,0,0,12.656,64.31,10834.831684641,3.937008,6,P-GPS,
12800,2022-06-18 16:43:11,0,0,3.937008,,,10834.831684641,22.309712,0.447388,0,0,6,0,16.042,10834.831684641,3.937008,4.250186,0,0.447388,0,-0.223694,89.9,1.2,4.1,0,0,1024,1024,1024,1024,0,0,0,0,90.1,0,99,4.033,4.026,4.033,4.018,0,0,12.656,64.31,10834.831684641,3.937008,6,P-GPS,
12900,2022-06-18 16:43:11,0,0,4.265092,,,10835.159768641,21.981628,0.447388,0,0,6,0,16.042,10835.159768641,4.265092,4.250186,0,0.447388,0,-0.223694,89.9,0.7,5.7,0,0,1024,1024,1024,1024,0,0,0,0,90.1,0,99,4.033,4.026,4.033,4.018,0,0,12.656,64.31,10835.159768641,4.265092,6,P-GPS,
13000,2022-06-18 16:43:11,0,0,4.265092,,,10835.159768641,21.981628,0.447388,0,0,6,0,16.042,10835.159768641,4.265092,4.250186,0,0.447388,0,0,89.9,1.1,6.4,0,0,1024,1024,1024,1024,0,0,0,0,90.1,0,99,4.033,4.026,4.033,4.018,0,0,12.656,64.31,10835.159768641,4.265092,6,P-GPS,
13100,2022-06-18 16:43:12,0,0,3.937008,,,10834.831684641,21.981628,0.223694,0,0,6,0,16.042,10835.159768641,4.265092,4.250186,0,0.223694,0,0.223694,89.9,1.1,6.2,0,0,1024,1024,1024,1024,0,0,0,0,90.1,0,99,4.04,4.03,4.026,4.003,0,0,12.548,64.31,10834.831684641,3.937008,6,P-GPS,
13200,2022-06-18 16:43:12,0,0,3.937008,,,10834.831684641,21.981628,0.223694,0,0,6,0,16.042,10835.159768641,4.265092,4.250186,0,0.223694,0,0.447388,89.8,1.1,5.2,0,0,1024,1024,1024,1024,0,0,0,0,90.1,0,99,4.04,4.03,4.026,4.003,0,0,12.548,64.31,10834.831684641,3.937008,6,P-GPS,
13400,2022-06-18 16:43:12,0,0,3.937008,,,10834.831684641,21.653544,0.223694,0,0,6,0,16.042,10835.159768641,4.265092,4.250186,0,0.223694,0,0,90,2,4.9,0,0,1024,1024,1024,1024,0,0,0,0,90.1,0,99,4.04,4.03,4.026,4.003,0,0,12.548,64.31,10834.831684641,3.937008,6,P-GPS,
13500,2022-06-18 16:43:12,0,0,3.937008,,,10834.831684641,21.653544,0,0,0,6,0,16.042,10835.159768641,4.265092,4.250186,0,0,0,0,90.1,2.5,4,0,0,1024,1024,1024,1024,0,0,0,0,90.1,0,99,4.04,4.03,4.026,4.003,0,0,12.548,64.31,10834.831684641,3.937008,6,P-GPS,
13600,2022-06-18 16:43:12,0,0,3.937008,,,10834.831684641,21.32546,0,0,0,6,0,16.042,10835.159768641,4.265092,4.250186,0,0,0,0,90.1,2.7,4.2,0,0,1024,1024,1024,1024,0,0,0,0,90.1,0,99,4.04,4.03,4.026,4.003,0,0,12.548,64.31,10834.831684641,3.937008,6,P-GPS,
13700,2022-06-18 16:43:12,0,0,3.608924,,,10834.503600641,21.32546,0,0,0,6,0,16.042,10835.159768641,4.265092,4.250186,0,0,0,0,89.9,2.3,4.7,0,0,1024,1024,1024,1024,0,0,0,0,90.1,0,99,4.04,4.03,4.026,4.003,0,0,12.548,64.31,10834.503600641,3.608924,6,P-GPS,
13800,2022-06-18 16:43:12,0,0,3.608924,,,10834.503600641,21.32546,0,0,0,6,0,16.042,10835.159768641,4.265092,4.250186,0,0,0,0,89.7,2.1,4.9,0,0,1024,1024,1024,1024,0,0,0,0,90.1,0,99,4.04,4.03,4.026,4.003,0,0,12.548,64.31,10834.503600641,3.608924,6,P-GPS,
13900,2022-06-18 16:43:12,0,0,3.608924,,,10834.503600641,21.32546,0.223694,0,0,6,0,16.042,10835.159768641,4.265092,4.250186,0,-0.223694,0,0.223694,89.7,2.9,6,0,0,1024,1024,1024,1024,0,0,0,0,90.1,0,99,4.04,4.03,4.026,4.003,0,0,12.548,64.31,10834.503600641,3.608924,6,P-GPS,
14000,2022-06-18 16:43:12,0,0,3.608924,,,10834.503600641,20.997376,0.447388,0,0,6,0,16.042,10835.159768641,4.265092,4.250186,0,-0.447388,0,0.223694,90,2.3,6.4,0,0,1024,1024,1024,1024,0,0,0,0,90.1,0,99,4.04,4.03,4.026,4.003,0,0,12.548,64.31,10834.503600641,3.608924,6,P-GPS,
14100,2022-06-18 16:43:13,0,0,3.608924,,,10834.503600641,20.997376,0.671082,0,0,6,0,15.877,10835.159768641,4.265092,4.250186,0,-0.671082,0,0.223694,89.9,0.7,2.1,0,0,1024,1024,1024,1024,0,0,0,0,90.1,0,99,4.04,4.03,4.026,4.003,0,0,12.548,64.31,10834.503600641,3.608924,6,P-GPS,
14200,2022-06-18 16:43:13,0,0,3.608924,,,10834.503600641,20.997376,0.447388,0,0,6,0,15.877,10835.159768641,4.265092,4.250186,0,-0.447388,0,0,89.7,0.6,-1.9,0,0,1024,1024,1024,1024,0,0,0,0,90.1,0,99,4.04,4.03,4.026,4.003,0,0,12.548,64.31,10834.503600641,3.608924,6,P-GPS,
14300,2022-06-18 16:43:13,0,0,3.608924,,,10834.503600641,20.669292,0.3131716,0,0,6,0,15.877,10835.159768641,4.265092,4.250186,0,-0.223694,0.223694,0,89.5,3.3,0,0,0,1024,1024,1024,1024,0,0,0,0,90.1,0,99,4.04,4.03,4.026,4.003,0,0,12.548,64.31,10834.503600641,3.608924,6,P-GPS,
14400,2022-06-18 16:43:13,0,0,3.608924,,,10834.503600641,20.669292,0.3131716,0,0,6,0,15.877,10835.159768641,4.265092,4.250186,0,-0.223694,0.223694,0.223694,89.5,5.1,1.6,0,0,1024,1024,1024,1024,0,0,0,0,90.1,0,99,4.04,4.03,4.026,4.003,0,0,12.548,64.31,10834.503600641,3.608924,6,P-GPS,
14500,2022-06-18 16:43:13,0,0,3.28084,,,10834.175516641,20.669292,0.447388,0,0,6,0,15.877,10835.159768641,4.265092,4.250186,0,-0.447388,0,0.223694,89.7,5.5,2.6,0,0,1024,1024,1024,1024,0,0,0,0,90.1,0,99,4.04,4.03,4.026,4.003,0,0,12.548,64.31,10834.175516641,3.28084,6,P-GPS,
14600,2022-06-18 16:43:13,0,0,3.28084,,,10834.175516641,20.669292,0.447388,0,0,6,0,15.877,10835.159768641,4.265092,4.250186,0,-0.447388,0,0.223694,90,3.3,1.4,0,0,1024,1024,1024,1024,0,0,0,0,90.1,0,99,4.04,4.03,4.026,4.003,0,0,12.548,64.31,10834.175516641,3.28084,6,P-GPS,
14700,2022-06-18 16:43:13,0,0,3.28084,,,10834.175516641,20.341208,0.447388,0,0,6,0,15.877,10835.159768641,4.265092,4.250186,0,-0.447388,0,0,90.2,2.3,-1.3,0,0,1024,1024,1024,1024,0,0,0,0,90.1,0,99,4.04,4.03,4.026,4.003,0,0,12.548,64.31,10834.175516641,3.28084,6,P-GPS,
14800,2022-06-18 16:43:13,0,0,3.28084,,,10834.175516641,20.341208,0.3131716,0,0,6,0,15.877,10835.159768641,4.265092,4.250186,0,-0.223694,0.223694,0,90.2,3.4,-3.3,0,0,1024,1024,1024,1024,0,0,0,0,90.1,0,99,4.04,4.03,4.026,4.003,0,0,12.548,64.31,10834.175516641,3.28084,6,P-GPS,
14900,2022-06-18 16:43:13,0,0,3.28084,,,10834.175516641,20.341208,0.223694,0,0,6,0,15.877,10835.159768641,4.265092,4.250186,0,0,0.223694,0,90.2,4,-1.6,0,0,1024,1024,1024,1024,0,0,0,0,90.1,0,99,4.04,4.03,4.026,4.003,0,0,12.548,64.31,10834.175516641,3.28084,6,P-GPS,
15000,2022-06-18 16:43:13,0,0,3.28084,,,10834.175516641,20.341208,0.223694,0,0,6,0,15.877,10835.159768641,4.265092,4.250186,0,0,0.223694,0,90.1,4.6,0,0,0,1024,1024,1024,1024,0,0,0,0,90.1,0,99,4.04,4.03,4.026,4.003,0,0,12.548,64.31,10834.175516641,3.28084,6,P-GPS,
15100,2022-06-18 16:43:14,0,0,3.28084,,,10834.175516641,20.341208,0.223694,0,0,6,0,15.932,10835.159768641,4.265092,4.250186,0,0,0.223694,0,90,5,1.3,0,0,1024,1024,1024,1024,0,0,0,0,90.1,0,99,4.018,4.012,4.019,3.998,0,0,13.474,64.31,10834.175516641,3.28084,6,P-GPS,
15200,2022-06-18 16:43:14,0,0,3.28084,,,10834.175516641,20.341208,0.223694,0,0,5,0,15.932,10835.159768641,4.265092,4.250186,0,-0.223694,0,0,90,4.8,1.7,0,0,1024,1024,1024,1024,0,0,0,0,90.1,0,99,4.018,4.012,4.019,3.998,0,0,13.474,64.31,10834.175516641,3.28084,6,P-GPS,
15300,2022-06-18 16:43:14,0,0,3.28084,,,10834.175516641,20.341208,0.223694,0,0,5,0,15.932,10835.159768641,4.265092,4.250186,0,-0.223694,0,0,90,4.9,1,0,0,1024,1024,1024,1024,0,0,0,0,90.1,0,99,4.018,4.012,4.019,3.998,0,0,13.474,64.31,10834.175516641,3.28084,6,P-GPS,
15400,2022-06-18 16:43:14,0,0,2.952756,,,10833.847432641,20.013124,0.223694,0,0,5,0,15.932,10835.159768641,4.265092,4.250186,0,-0.223694,0,0,90.1,4,0,0,0,1024,1024,1024,1024,0,0,0,0,90.1,0,99,4.018,4.012,4.019,3.998,0,0,13.474,64.31,10833.847432641,2.952756,6,P-GPS,
15500,2022-06-18 16:43:14,0,0,3.28084,,,10834.175516641,20.013124,0,0,0,5,0,15.932,10835.159768641,4.265092,4.250186,0,0,0,-0.223694,90.2,3.1,-0.7,0,0,1024,1024,1024,1024,0,0,0,0,90.1,0,99,4.018,4.012,4.019,3.998,0,0,13.474,64.31,10834.175516641,3.28084,6,P-GPS,
15600,2022-06-18 16:43:14,0,0,3.28084,,,10834.175516641,20.013124,0,0,0,6,0,15.932,10835.159768641,4.265092,4.250186,0,0,0,0,90.1,2.3,-0.8,0,0,1024,1024,1047,1051,0,0,3,4,90.1,0,99,4.018,4.012,4.019,3.998,0,0,13.474,64.31,10834.175516641,3.28084,6,P-GPS,
15700,2022-06-18 16:43:14,0,0,3.28084,,,10834.175516641,20.013124,0.223694,0,0,6,0,15.932,10835.159768641,4.265092,4.250186,0,0,-0.223694,0,90,2.5,-0.8,0,0,1024,1024,1038,1058,0,0,2,5,90.3,0,99,4.018,4.012,4.019,3.998,0,0,13.474,64.31,10834.175516641,3.28084,6,P-GPS,
15800,2022-06-18 16:43:14,0,0,3.28084,,,10834.175516641,20.013124,0.223694,0,0,6,0,15.932,10835.159768641,4.265092,4.250186,0,0,-0.223694,-0.223694,90.1,3.2,-0.5,0,0,1024,1024,1024,1024,0,0,0,0,90.3,0,99,4.018,4.012,4.019,3.998,0,0,13.474,64.31,10834.175516641,3.28084,6,P-GPS,
15900,2022-06-18 16:43:14,0,0,3.28084,,,10834.175516641,20.013124,0.447388,0,0,6,0,15.932,10835.159768641,4.265092,4.250186,0,0,-0.447388,0,90.4,2.6,0.4,0,0,1024,1024,1024,1024,0,0,0,0,90.3,0,99,4.018,4.012,4.019,3.998,0,0,13.474,64.31,10834.175516641,3.28084,6,P-GPS,
16000,2022-06-18 16:43:14,0,0,2.952756,,,10833.847432641,20.013124,0.447388,0,0,5,0,15.932,10835.159768641,4.265092,4.250186,0,0,-0.447388,0.223694,90.3,1.7,1.4,0,0,1024,1024,1024,1024,0,0,0,0,90.3,0,99,4.018,4.012,4.019,3.998,0,0,13.474,64.31,10833.847432641,2.952756,6,P-GPS,
16100,2022-06-18 16:43:15,0,0,2.952756,,,10833.847432641,20.013124,0.447388,0,0,5,0,15.96,10835.159768641,4.265092,4.250186,0,0,-0.447388,0.223694,90.3,0.5,1.7,0,0,1024,1024,1153,885,0,0,20,-21,90.3,0,99,4.018,4.011,4.013,3.995,0,0,13.02,64.31,10833.847432641,2.952756,6,P-GPS,
16200,2022-06-18 16:43:15,0,0,2.952756,,,10833.847432641,20.013124,0.223694,0,0,6,0,15.96,10835.159768641,4.265092,4.250186,0,0,-0.223694,0,90.1,0.6,1.3,0,0,1024,1024,1225,885,0,0,30,-21,90,0,99,4.018,4.011,4.013,3.995,0,0,13.02,64.31,10833.847432641,2.952756,6,P-GPS,
16300,2022-06-18 16:43:15,0,0,2.952756,,,10833.847432641,20.013124,0.223694,0,0,6,0,15.96,10835.159768641,4.265092,4.250186,0,0,-0.223694,0,88.7,0.5,1.5,0,0,1024,1024,1285,959,0,0,40,-10,89.1,0,99,4.018,4.011,4.013,3.995,0,0,13.02,64.31,10833.847432641,2.952756,6,P-GPS,
16400,2022-06-18 16:43:15,0,0,2.952756,,,10833.847432641,20.013124,0.223694,0,0,6,0,15.96,10835.159768641,4.265092,4.250186,0,0,-0.223694,-0.447388,87,1.9,3,0,0,1024,1024,1249,1012,0,0,34,-2,88.7,0,99,4.018,4.011,4.013,3.995,0,0,13.02,64.31,10833.847432641,2.952756,6,P-GPS,
16500,2022-06-18 16:43:15,0,0,2.952756,,,10833.847432641,20.013124,0.223694,0,0,6,0,15.96,10835.159768641,4.265092,4.250186,0,0,-0.223694,-1.565858,86.4,2.2,3.5,0,0,1024,1024,1202,978,0,0,27,-7,88.5,0,99,4.018,4.011,4.013,3.995,0,0,13.02,64.31,10833.847432641,2.952756,6,P-GPS,
16600,2022-06-18 16:43:15,0,0,3.28084,,,10834.175516641,20.341208,0.3131716,0,0,6,0,15.96,10835.159768641,4.265092,4.250186,0,-0.223694,-0.223694,-1.565858,86.5,1.4,2.4,0,0,1024,1024,1135,1017,0,0,17,-1,88.4,0,99,4.018,4.011,4.013,3.995,0,0,13.02,64.31,10834.175516641,3.28084,6,P-GPS,
16700,2022-06-18 16:43:15,0,0,3.28084,,,10834.175516641,20.669292,0.3131716,0,0,6,0,15.96,10835.159768641,4.265092,4.250186,0,-0.223694,-0.223694,-1.11847,86.3,0.8,-0.7,0,0,1024,1024,1097,1024,0,0,11,0,88.3,0,99,4.018,4.011,4.013,3.995,0,0,13.02,64.31,10834.175516641,3.28084,6,P-GPS,
16800,2022-06-18 16:43:15,0,0,3.28084,,,10834.175516641,20.669292,0,0,0,6,0,15.96,10835.159768641,4.265092,4.250186,0,0,0,-1.11847,86.3,0.9,-2,0,0,1024,1024,1024,1024,0,0,0,0,88.2,0,99,4.018,4.011,4.013,3.995,0,0,13.02,64.31,10834.175516641,3.28084,6,P-GPS,
16900,2022-06-18 16:43:15,0,0,3.28084,,,10834.175516641,20.997376,0.223694,0,0,6,0,15.96,10835.159768641,4.265092,4.250186,0,0.223694,0,-0.223694,86.3,1.7,0,0,0,1024,1024,1024,1024,0,0,0,0,88.1,0,99,4.018,4.011,4.013,3.995,0,0,13.02,64.31,10834.175516641,3.28084,6,P-GPS,
17000,2022-06-18 16:43:15,0,0,3.28084,,,10834.175516641,20.997376,0,0,0,5,0,15.96,10835.159768641,4.265092,4.250186,0,0,0,0,86.3,1.8,1.9,0,0,1024,1024,1024,1024,0,0,0,0,88.1,0,99,4.018,4.011,4.013,3.995,0,0,13.02,64.31,10834.175516641,3.28084,6,P-GPS,
17100,2022-06-18 16:43:16,0,0,3.28084,,,10834.175516641,20.997376,0,0,0,5,0,15.987,10835.159768641,4.265092,4.250186,0,0,0,0,86.2,1.4,1.5,0,0,1024,1024,1024,1024,0,0,0,0,88.1,0,99,4.003,4.022,4.041,3.994,0,0,13.368,64.31,10834.175516641,3.28084,6,P-GPS,
17200,2022-06-18 16:43:16,0,0,2.952756,,,10833.847432641,20.997376,0,0,0,5,0,15.987,10835.159768641,4.265092,4.250186,0,0,0,0,86.2,1.5,0.4,0,0,1024,1024,1024,1024,0,0,0,0,88,0,99,4.003,4.022,4.041,3.994,0,0,13.368,64.31,10833.847432641,2.952756,6,P-GPS,
17300,2022-06-18 16:43:16,0,0,2.952756,,,10833.847432641,20.997376,0,0,0,5,0,15.987,10835.159768641,4.265092,4.250186,0,0,0,0,86.1,2,0.5,0,0,1024,1024,1075,1024,0,0,8,0,88,0,99,4.003,4.022,4.041,3.994,0,0,13.368,64.31,10833.847432641,2.952756,6,P-GPS,
17400,2022-06-18 16:43:16,0,0,2.952756,,,10833.847432641,20.997376,0.223694,0,0,5,0,15.987,10835.159768641,4.265092,4.250186,0,0.223694,0,0,86.2,3.2,0.9,0,0,1024,1024,1108,990,0,0,13,-5,87.9,0,99,4.003,4.022,4.041,3.994,0,0,13.368,64.31,10833.847432641,2.952756,6,P-GPS,
17500,2022-06-18 16:43:16,0,0,2.952756,,,10833.847432641,20.997376,0.223694,0,0,5,0,15.987,10835.159768641,4.265092,4.250186,0,0.223694,0,0,86.2,3.6,1.4,0,0,1024,1024,1145,980,0,0,18,-7,87.8,0,99,4.003,4.022,4.041,3.994,0,0,13.368,64.31,10833.847432641,2.952756,6,P-GPS,
17600,2022-06-18 16:43:16,0,0,2.952756,,,10833.847432641,21.32546,0.223694,0,0,9,0,15.987,10835.159768641,4.265092,4.250186,0,0.223694,0,-0.223694,86.1,2.7,1.8,0,0,1024,1024,1174,995,0,0,23,-4,87.8,0,99,4.003,4.022,4.041,3.994,0,0,13.368,64.31,10833.847432641,2.952756,6,P-GPS,
17700,2022-06-18 16:43:16,0,0,2.952756,,,10833.847432641,21.32546,0,0,0,9,0,15.987,10835.159768641,4.265092,4.250186,0,0,0,-0.223694,85.8,2.1,2.4,0,0,1024,1024,1181,1011,0,0,24,-2,87.6,0,99,4.003,4.022,4.041,3.994,0,0,13.368,64.31,10833.847432641,2.952756,6,P-GPS,
17800,2022-06-18 16:43:16,0,0,2.952756,,,10833.847432641,21.32546,0.223694,0,0,9,0,15.987,10835.159768641,4.265092,4.250186,0,0,0.223694,-0.447388,85.7,2.9,2.3,0,0,1024,1024,1170,1007,0,0,22,-3,87.6,0,99,4.003,4.022,4.041,3.994,0,0,13.368,64.31,10833.847432641,2.952756,6,P-GPS,
17900,2022-06-18 16:43:16,0,0,2.952756,,,10833.847432641,21.32546,0.223694,0,0,9,0,15.987,10835.159768641,4.265092,4.250186,0,0,0.223694,-0.894776,85.7,3.6,0.8,0,0,1024,1024,1123,1007,0,0,15,-3,87.5,0,99,4.003,4.022,4.041,3.994,0,0,13.368,64.31,10833.847432641,2.952756,6,P-GPS,
18000,2022-06-18 16:43:16,0,0,3.28084,,,10834.175516641,21.653544,0,0,0,9,0,15.987,10835.159768641,4.265092,4.250186,0,0,0,-1.11847,85.7,3.4,-0.5,0,0,1024,1024,1067,1024,0,0,7,0,87.4,0,99,4.003,4.022,4.041,3.994,0,0,13.368,64.31,10834.175516641,3.28084,6,P-GPS,
18100,2022-06-18 16:43:17,0,0,3.28084,,,10834.175516641,21.653544,0.223694,0,0,9,0,16.015,10835.159768641,4.265092,4.250186,0,0.223694,0,-1.11847,85.8,2.8,0.7,0,0,1024,1024,1024,1024,0,0,0,0,87.4,0,99,4.003,4.022,4.041,3.994,0,0,13.368,64.31,10834.175516641,3.28084,6,P-GPS,
18200,2022-06-18 16:43:17,0,0,3.28084,,,10834.175516641,21.981628,0,0,0,9,0,16.015,10835.159768641,4.265092,4.250186,0,0,0,-0.671082,85.8,3.2,2.2,0,0,1024,1024,1024,1024,0,0,0,0,87.3,0,99,4.003,4.022,4.041,3.994,0,0,13.368,64.31,10834.175516641,3.28084,6,P-GPS,
18300,2022-06-18 16:43:17,0,0,3.608924,,,10834.503600641,21.981628,0,0,0,9,0,16.015,10835.159768641,4.265092,4.250186,0,0,0,-0.223694,85.7,3.1,2.3,0,0,1024,1024,1024,1024,0,0,0,0,87.3,0,99,4.003,4.022,4.041,3.994,0,0,13.368,64.31,10834.503600641,3.608924,6,P-GPS,
18400,2022-06-18 16:43:17,0,0,3.608924,,,10834.503600641,21.981628,0,0,0,9,0,16.015,10835.159768641,4.265092,4.250186,0,0,0,-0.447388,85.7,3.1,1.9,0,0,1024,1024,1024,1024,0,0,0,0,87.3,0,99,4.003,4.022,4.041,3.994,0,0,13.368,64.31,10834.503600641,3.608924,6,P-GPS,
18500,2022-06-18 16:43:17,0,0,3.608924,,,10834.503600641,21.981628,0,0,0,9,0,16.015,10835.159768641,4.265092,4.250186,0,0,0,0,85.8,3.2,1.7,0,0,1024,1024,1024,1024,0,0,0,0,87.2,0,99,4.003,4.022,4.041,3.994,0,0,13.368,64.31,10834.503600641,3.608924,6,P-GPS,
18600,2022-06-18 16:43:17,0,0,3.608924,,,10834.503600641,22.309712,0,0,0,9,2,16.015,10835.159768641,4.265092,4.250186,0,0,0,-0.223694,85.7,2.2,2.3,0,0,1024,1024,1024,1024,0,0,0,0,87.2,0,99,4.003,4.022,4.041,3.994,0,0,13.368,64.31,10834.503600641,3.608924,6,P-GPS,
18700,2022-06-18 16:43:17,0,0,3.608924,,,10834.503600641,22.309712,0,0,0,9,2,16.015,10835.159768641,4.265092,4.250186,0,0,0,0,85.6,2,1.7,0,0,1024,1024,1024,1024,0,0,0,0,87.2,0,99,4.003,4.022,4.041,3.994,0,0,13.368,64.31,10834.503600641,3.608924,6,P-GPS,
18800,2022-06-18 16:43:17,0,0,3.608924,,,10834.503600641,22.309712,0.223694,0,0,9,2,16.015,10835.159768641,4.265092,4.250186,0,0.223694,0,-0.223694,85.6,1.8,2.5,0,0,1024,1024,1035,1024,0,0,2,0,87.1,0,99,4.003,4.022,4.041,3.994,0,0,13.368,64.31,10834.503600641,3.608924,6,P-GPS,
18900,2022-06-18 16:43:17,0,0,3.608924,,,10834.503600641,22.309712,0,0,0,9,2,16.015,10835.159768641,4.265092,4.250186,0,0,0,-0.223694,85.6,2.9,3.2,0,0,1024,1024,1105,1024,0,0,12,0,87.1,0,99,4.003,4.022,4.041,3.994,0,0,13.368,64.31,10834.503600641,3.608924,6,P-GPS,
19000,2022-06-18 16:43:17,0,0,3.608924,,,10834.503600641,22.309712,0,0,0,9,2,16.015,10835.159768641,4.265092,4.250186,0,0,0,0,85.7,2.9,2.5,0,0,1024,1024,1083,1019,0,0,9,-1,87.1,0,99,4.003,4.022,4.041,3.994,0,0,13.368,64.31,10834.503600641,3.608924,6,P-GPS,
19100,2022-06-18 16:43:18,0,0,3.608924,,,10834.503600641,22.309712,0,0,0,9,2,16.07,10835.159768641,4.265092,4.250186,0,0,0,0,85.7,3,2.5,0,0,1024,1024,1129,1010,0,0,16,-2,87,0,99,4.019,4.012,4.017,4.008,0,0,13.706,64.31,10834.503600641,3.608924,6,P-GPS,Setting new Maximum Flight Altitude to 30m (98 ft)
19200,2022-06-18 16:43:18,0,0,3.937008,,,10834.831684641,22.309712,0.223694,0,0,9,2,16.07,10835.159768641,4.265092,4.250186,0,0,-0.223694,-0.447388,85.7,2.6,4.3,0,0,1024,1024,1129,1010,0,0,16,-2,87,0,99,4.019,4.012,4.017,4.008,0,0,13.706,64.31,10834.831684641,3.937008,6,P-GPS,
19300,2022-06-18 16:43:18,0,0,3.937008,,,10834.831684641,22.309712,0,0,0,9,2,16.07,10835.159768641,4.265092,4.250186,0,0,0,-0.223694,85.5,1.2,4.4,0,0,1024,1024,1037,1024,0,0,2,0,86.9,0,99,4.019,4.012,4.017,4.008,0,0,13.706,64.31,10834.831684641,3.937008,6,P-GPS,
19400,2022-06-18 16:43:18,0,0,3.937008,,,10834.831684641,22.309712,0.223694,0,0,9,2,16.07,10835.159768641,4.265092,4.250186,0,-0.223694,0,-0.223694,85.4,0.2,3.6,0,0,1024,1024,1024,1024,0,0,0,0,86.9,0,99,4.019,4.012,4.017,4.008,0,0,13.706,64.31,10834.831684641,3.937008,6,P-GPS,
19500,2022-06-18 16:43:18,0,0,3.937008,,,10834.831684641,22.309712,0.223694,0,0,9,2,16.07,10835.159768641,4.265092,4.250186,0,-0.223694,0,0,85.6,1.4,1.9,0,0,1024,1024,1068,974,0,0,7,-8,86.9,0,99,4.019,4.012,4.017,4.008,0,0,13.706,64.31,10834.831684641,3.937008,6,P-GPS,
19600,2022-06-18 16:43:18,4.52535138377626,-73.7733833698132,3.937008,,,10834.831684641,22.309712,0.223694,0,0,9,2,16.07,10835.159768641,4.265092,4.250186,0,-0.223694,0,0,85.7,2.7,0.3,0,0,1024,1024,1068,974,0,0,7,-8,86.8,0,99,4.019,4.012,4.017,4.008,0,0,13.706,64.31,10834.831684641,3.937008,6,P-GPS,
19700,2022-06-18 16:43:18,4.52535121180362,-73.7733833488583,3.608924,,,10834.503600641,22.309712,0.223694,0.0632053826,0.0632053826,9,2,16.07,10835.159768641,4.265092,4.250186,0.0632053826,-0.223694,0,0,85.8,2.5,-0.7,0,0,1024,1024,1102,881,0,0,12,-22,86.4,0,99,4.019,4.012,4.017,4.008,0,0,13.706,64.31,10834.503600641,3.608924,6,P-GPS,
19800,2022-06-18 16:43:18,4.52535106217699,-73.7733833529613,3.937008,,,10834.831684641,22.309712,0.223694,0.117495410584,0.117816932904,8,2,16.07,10835.159768641,4.265092,4.250186,0.117495410584,-0.223694,0,-0.223694,85.2,2.1,-0.5,0,0,1024,1024,1176,954,0,0,23,-11,85.8,0,99,4.019,4.012,4.017,4.008,0,0,13.706,64.31,10834.831684641,3.937008,6,P-GPS,
19900,2022-06-18 16:43:18,4.52535093826329,-73.7733833614109,3.937008,,,10834.831684641,22.309712,0,0.1625738241,0.163130910732,8,2,16.07,10835.159768641,4.265092,4.250186,0.1625738241,0,0,-0.223694,84.1,1.9,-0.3,0,0,1024,1024,1092,1002,0,0,10,-3,85.6,0,99,4.019,4.012,4.017,4.008,0,0,13.706,64.31,10834.831684641,3.937008,6,P-GPS,
20000,2022-06-18 16:43:18,4.52535083585742,-73.7733833562954,3.937008,,,10834.831684641,22.309712,0,0.199968182252,0.200540032664,8,2,16.07,10835.159768641,4.265092,4.250186,0.199968182252,0,0,-0.223694,83.6,1.8,-0.1,0,0,1024,1024,1024,1024,0,0,0,0,85.5,0,99,4.019,4.012,4.017,4.008,0,0,13.706,64.31,10834.831684641,3.937008,6,P-GPS,
20100,2022-06-18 16:43:19,4.52535073304734,-73.7733833158769,3.937008,,,10834.831684641,22.637796,0.223694,0.238227041744,0.240828091696,8,2,15.574,10835.159768641,4.265092,4.250186,0.238227041744,-0.223694,0,-0.223694,83.8,2.7,-1.3,0,0,1024,1024,1024,1024,0,0,0,0,85.5,0,98,3.973,3.952,3.978,3.982,0,0,13.2,64.31,10834.831684641,3.937008,6,P-GPS,
20200,2022-06-18 16:43:19,4.52535069706931,-73.7733833200902,3.937008,,,10834.831684641,22.637796,0,0.251196530348,0.254043971384,7,2,15.574,10835.159768641,4.265092,4.250186,0.251196530348,0,0,-0.223694,84,3.4,-2.4,0,0,1024,1024,1029,995,0,0,1,-4,85.4,0,98,3.973,3.952,3.978,3.982,0,0,13.2,64.31,10834.831684641,3.937008,6,P-GPS,
20300,2022-06-18 16:43:19,4.52535071800347,-73.7733833412741,3.937008,,,10834.831684641,22.637796,0,0.243128616704,0.264892725012,7,2,15.574,10835.159768641,4.265092,4.250186,0.251196530348,0,0,0,84.1,2.8,-1.5,0,0,1024,1024,1024,888,0,0,0,-21,85.4,0,98,3.973,3.952,3.978,3.982,0,0,13.2,64.31,10834.831684641,3.937008,6,P-GPS,
20400,2022-06-18 16:43:19,4.52535080683743,-73.7733833956243,3.937008,,,10834.831684641,22.637796,0.223694,0.210705059236,0.302856636988,7,2,15.574,10835.159768641,4.265092,4.250186,0.251196530348,0.223694,0,-0.223694,83.9,2.2,1.5,0,0,1024,1024,1024,835,0,0,0,-29,84.9,0,98,3.973,3.952,3.978,3.982,0,0,13.2,64.31,10834.831684641,3.937008,6,P-GPS,
20500,2022-06-18 16:43:19,4.5253508676389,-73.7733834167241,3.937008,,,10834.831684641,22.637796,0,0.189083667468,0.326329734852,7,2,15.574,10835.159768641,4.265092,4.250186,0.251196530348,0,0,0,82.5,2,2.3,0,0,1024,1024,1024,781,0,0,0,-37,83.7,0,98,3.973,3.952,3.978,3.982,0,0,13.2,64.31,10834.831684641,3.937008,6,P-GPS,
20600,2022-06-18 16:43:19,4.52535083618993,-73.7733834047053,3.937008,,,10834.831684641,22.637796,0.3131716,0.200189310868,0.33860893472,8,2,15.574,10835.159768641,4.265092,4.250186,0.251196530348,-0.223694,0.223694,0,80.4,3.5,0.7,0,0,1024,1024,1027,746,0,0,0,-42,82.2,0,98,3.973,3.952,3.978,3.982,0,0,13.2,64.31,10834.831684641,3.937008,6,P-GPS,
20700,2022-06-18 16:43:19,4.52535077252306,-73.773383377719,3.608924,,,10834.503600641,22.637796,0.223694,0.223033799788,0.36382547096,8,2,15.574,10835.159768641,4.265092,4.250186,0.251196530348,-0.223694,0,0.223694,77.1,3.4,-0.8,0,0,1024,1024,1026,736,0,0,0,-44,80.1,0,98,3.973,3.952,3.978,3.982,0,0,13.2,64.31,10834.503600641,3.608924,6,P-GPS,
20800,2022-06-18 16:43:19,4.52535068669602,-73.7733833214325,3.608924,,,10834.503600641,22.637796,0,0.254937344116,0.40123688948,8,3,15.574,10835.159768641,4.265092,4.250186,0.254937344116,0,0,0.223694,72.9,2.8,-1.5,0,0,1024,1024,1026,735,0,0,0,-44,77.3,0,98,3.973,3.952,3.978,3.982,0,0,13.2,64.31,10834.503600641,3.608924,6,P-GPS,
20900,2022-06-18 16:43:19,4.52535063798448,-73.773383253556,3.28084,,,10834.175516641,22.637796,0,0.27536746288,0.43165683796,8,3,15.574,10835.159768641,4.265092,4.250186,0.27536746288,0,0,0.447388,68.3,3.1,-2.2,0,0,1024,1024,1026,732,0,0,0,-44,73.8,0,98,3.973,3.952,3.978,3.982,0,0,13.2,64.31,10834.175516641,3.28084,6,P-GPS,
21000,2022-06-18 16:43:20,4.5253505571587,-73.773383157585,3.28084,,,10834.175516641,22.637796,0,0.31131234592,0.47735237748,9,3,15.574,10835.159768641,4.265092,4.250186,0.31131234592,0,0,0.447388,63.8,2.7,-2.3,0,0,1024,1024,1025,727,0,0,0,-45,69.4,0,98,3.973,3.952,3.978,3.982,0,0,13.2,64.31,10834.175516641,3.28084,6,P-GPS,
21100,2022-06-18 16:43:20,4.52535053958056,-73.7733830763164,2.952756,,,10833.847432641,22.637796,0,0.325978356888,0.50759844144,9,3,15.96,10835.159768641,4.265092,4.250186,0.325978356888,0.223694,0,0,59.2,3.3,-0.3,0,0,1024,1024,1024,732,0,0,0,-44,64.8,0,98,3.973,3.952,3.978,3.982,0,0,12.478,64.31,10833.847432641,2.952756,6,P-GPS,
21200,2022-06-18 16:43:20,4.52535056023503,-73.7733830090776,2.952756,,,10833.847432641,22.637796,0,0.327865496056,0.53318899344,8,3,15.96,10835.159768641,4.265092,4.250186,0.327865496056,0,0,0,54.3,4.3,0.1,0,0,1024,1024,1025,729,0,0,0,-45,59.8,0,98,3.973,3.952,3.978,3.982,0,0,12.478,64.31,10833.847432641,2.952756,6,P-GPS,
21300,2022-06-18 16:43:20,4.52535059837807,-73.7733829719677,2.952756,,,10833.847432641,22.96588,0,0.321014774052,0.552575477,8,3,15.96,10835.159768641,4.265092,4.250186,0.327865496056,0,0,0,49.8,4.4,-0.7,0,0,1024,1024,1025,725,0,0,0,-45,55,0,98,3.973,3.952,3.978,3.982,0,0,12.478,64.31,10833.847432641,2.952756,6,P-GPS,
21400,2022-06-18 16:43:20,4.52535064366215,-73.7733829786199,2.952756,,,10833.847432641,22.96588,0,0.305221794544,0.5692749526,8,3,15.96,10835.159768641,4.265092,4.250186,0.327865496056,0,0,-0.223694,45.8,3.6,-0.8,0,0,1024,1024,1025,735,0,0,0,-44,50.2,0,98,3.973,3.952,3.978,3.982,0,0,12.478,64.31,10833.847432641,2.952756,6,P-GPS,
21500,2022-06-18 16:43:20,4.52535069114941,-73.7733830030216,2.952756,,,10833.847432641,22.96588,0,0.285756570824,0.58874017632,8,3,15.96,10835.159768641,4.265092,4.250186,0.327865496056,0,0,-0.223694,41.6,3.7,-0.7,0,0,1024,1024,1026,735,0,0,0,-44,50.2,0,98,3.973,3.952,3.978,3.982,0,0,12.478,64.31,10833.847432641,2.952756,6,P-GPS,
21600,2022-06-18 16:43:20,4.52535070324722,-73.7733829954883,2.952756,,,10833.847432641,23.293964,0,0.283167988064,0.59393374604,9,3,15.96,10835.159768641,4.265092,4.250186,0.327865496056,0,0,-0.447388,37.2,3.5,-1,0,0,1024,1024,1025,732,0,0,0,-44,45.8,0,98,3.973,3.952,3.978,3.982,0,0,12.478,64.31,10833.847432641,2.952756,6,P-GPS,
21700,2022-06-18 16:43:20,4.52535068457314,-73.7733829731604,3.28084,,,10834.175516641,23.293964,0,0.293071859772,0.60453414008,9,3,15.96,10835.159768641,4.265092,4.250186,0.327865496056,0,0,-0.223694,32.7,3.1,-2.6,0,0,1024,1024,1024,720,0,0,0,-46,41.1,0,98,3.973,3.952,3.978,3.982,0,0,12.478,64.31,10834.175516641,3.28084,6,P-GPS,
21800,2022-06-18 16:43:20,4.52535071968687,-73.7733829729203,2.952756,,,10833.847432641,23.293964,0.223694,0.282035442096,0.61734582028,8,3,15.96,10835.159768641,4.265092,4.250186,0.327865496056,0.223694,0,0,28,3.1,-2.2,0,0,1024,1024,1024,705,0,0,0,-48,36.3,0,98,3.973,3.952,3.978,3.982,0,0,12.478,64.31,10833.847432641,2.952756,6,P-GPS,
21900,2022-06-18 16:43:20,4.52535078818666,-73.7733830343945,2.952756,,,10833.847432641,23.622048,0.3131716,0.249203748132,0.65088256676,8,3,15.96,10835.159768641,4.265092,4.250186,0.327865496056,0.223694,-0.223694,0,23.1,2.9,-0.7,0,0,1024,1024,1024,654,0,0,0,-56,31.1,0,98,3.973,3.952,3.978,3.982,0,0,12.478,64.31,10833.847432641,2.952756,6,P-GPS,
22000,2022-06-18 16:43:20,4.52535084530626,-73.7733831198977,2.952756,,,10833.847432641,23.622048,0.223694,0.216469495116,0.68831695116,8,3,15.96,10835.159768641,4.265092,4.250186,0.327865496056,0.223694,0,0,17.9,2.6,-0.2,0,0,1024,1024,1024,606,0,0,0,-63,25.3,0,98,3.973,3.952,3.978,3.982,0,0,12.478,64.31,10833.847432641,2.952756,6,P-GPS,
22100,2022-06-18 16:43:21,4.52535087778604,-73.7733832083273,2.952756,,,10833.847432641,23.622048,0.223694,0.193728352656,0.72259188664,8,3,15.794,10835.159768641,4.265092,4.250186,0.327865496056,0.223694,0,-0.447388,11.6,2.9,-0.7,0,0,1024,1024,1024,563,0,0,0,-70,19,0,98,4.01,3.999,3.998,3.979,0,0,12.478,64.31,10833.847432641,2.952756,6,P-GPS,
