time(millisecond),ModifyDate,GPSLatitude,GPSLongitude,height_above_takeoff(feet),height_above_ground_at_drone_location(feet),ground_elevation_at_drone_location(feet),AbsoluteAltitude,height_sonar(feet),speed(mph),distance(feet),mileage(feet),satellites,gpslevel,voltage(v),max_altitude(feet),max_ascent(feet),max_speed(mph),max_distance(feet), xSpeed(mph), ySpeed(mph), zSpeed(mph), compass_heading(degrees), pitch(degrees), roll(degrees),isPhoto,isVideo,rc_elevator,rc_aileron,rc_throttle,rc_rudder,rc_elevator(percent),rc_aileron(percent),rc_throttle(percent),rc_rudder(percent),gimbal_heading(degrees),gimbal_pitch(degrees),battery_percent,voltageCell1,voltageCell2,voltageCell3,voltageCell4,voltageCell5,voltageCell6,current(A),battery_temperature(f),altitude(feet),ascent(feet),flycStateRaw,flycState,message
0,2022-06-18 14:08:44,4.52537985659521,-73.773422469615,0,Available with any HD 360 subscription,Available with any HD 360 subscription,10833.631646873,0.328084,0,0,0,14,5,0,10833.631646873,0,0,0,0,0,0,88.2,8.2,8.2,0,0,1024,1024,1024,1024,0,0,0,0,99.7,0,100,4.086,4.069,4.04,4.043,0,0,0,32,10833.631646873,0,41,Motors_Started,
100,2022-06-18 14:08:44,4.52537984088622,-73.7734225198465,0,,,10833.631646873,0.328084,0,0.0191477040248,0.0191477040248,14,5,0,10833.631646873,0,0,0.0191477040248,0,0,0,88.1,8.5,8.4,0,0,1024,1024,1024,1024,0,0,0,0,99.6,0,100,4.086,4.069,4.04,4.043,0,0,0,32,10833.631646873,0,41,Motors_Started,
200,2022-06-18 14:08:45,4.52537984377997,-73.7734225556811,0,,,10833.631646873,0.328084,0,0.0316505259472,0.0322238527372,14,5,0,10833.631646873,0,0,0.0316505259472,0,0,0,88,8.6,8.3,0,0,585,471,1024,1112,-67,-84,0,13,99.4,0,100,4.086,4.069,4.04,4.043,0,0,0,32,10833.631646873,0,41,Motors_Started,Setting new Return-To-Home altitude to 90m (295 ft). Data Recorder File Index is 27. Setting new Maximum Flight Altitude to 500m (1640 ft)
300,2022-06-18 14:08:45,4.52537986505233,-73.7734224985378,0,,,10833.631646873,0.328084,0,0.010962762818,0.05440945056,14,5,0,10833.631646873,0,0,0.0316505259472,0,0,0,88.1,8.8,8.1,0,0,1024,1000,1024,1024,0,-4,0,0,99.3,0,100,4.086,4.069,4.04,4.043,0,0,0,32,10833.631646873,0,41,Motors_Started,
400,2022-06-18 14:08:45,4.52537988737707,-73.7734225284431,0,,,10833.631646873,0.328084,0,0.024164862978,0.067998033672,14,5,0,10833.631646873,0,0,0.0316505259472,0,0,0,88.2,9,8,0,0,1024,1024,1024,1024,0,0,0,0,99.3,0,100,4.086,4.069,4.04,4.043,0,0,0,32,10833.631646873,0,41,Motors_Started,
500,2022-06-18 14:08:45,4.5253799031283,-73.7734225743304,0,,,10833.631646873,0.328084,0,0.041698820232,0.08564960904,14,5,0,10833.631646873,0,0,0.041698820232,0,0,0,88.4,8.8,7.8,0,0,1024,1024,1024,1024,0,0,0,0,99.3,0,100,4.086,4.069,4.04,4.043,0,0,0,32,10833.631646873,0,41,Motors_Started,
600,2022-06-18 14:08:45,4.52537991455713,-73.7734226125361,0,,,10833.631646873,0.328084,0,0.056119096284,0.10015748352,14,5,0,10833.631646873,0,0,0.056119096284,0,0,0,88.6,9.1,8,0,0,1024,1024,1024,1024,0,0,0,0,99.3,0,100,4.086,4.069,4.04,4.043,0,0,0,32,10833.631646873,0,41,Motors_Started,
700,2022-06-18 14:08:45,4.52537989651143,-73.7734226756479,0,,,10833.631646873,0.328084,0,0.07633858512,0.124037733628,14,5,0,10833.631646873,0,0,0.07633858512,0,0,0,88.3,9.3,8.1,0,0,1024,1024,1024,1024,0,0,0,0,99.3,0,100,4.086,4.069,4.04,4.043,0,0,0,32,10833.631646873,0,41,Motors_Started,
800,2022-06-18 14:08:45,4.52537990271407,-73.7734227384101,0,,,10833.631646873,0.328084,0,0.099201446744,0.146977038824,14,5,0,10833.631646873,0,0,0.099201446744,0,0,0,88.4,9.4,8,0,0,1024,1024,1024,1024,0,0,0,0,99.3,0,100,4.086,4.069,4.04,4.043,0,0,0,32,10833.631646873,0,41,Motors_Started,
900,2022-06-18 14:08:45,4.52537990085723,-73.7734228387791,0,,,10833.631646873,0.328084,0,0.135237209052,0.183488522932,14,5,0,10833.631646873,0,0,0.135237209052,0,0,0,88.3,9.7,7.9,0,0,1024,1024,1024,1024,0,0,0,0,99.3,0,100,4.086,4.069,4.04,4.043,0,0,0,32,10833.631646873,0,41,Motors_Started,
1000,2022-06-18 14:08:45,4.52537989329504,-73.773422910144,0,,,10833.631646873,0.328084,0,0.16078412588,0.209591214056,14,5,0,10833.631646873,0,0,0.16078412588,0,0,0,88.2,9.8,7.9,0,0,1024,1024,1024,1024,0,0,0,0,99.3,0,100,4.086,4.069,4.04,4.043,0,0,0,32,10833.631646873,0,41,Motors_Started,
1100,2022-06-18 14:08:45,4.52537987762422,-73.7734229351474,0,,,10833.631646873,0.328084,0,0.169493443744,0.2203330123,14,5,0,10833.631646873,0,0,0.169493443744,0,0,0,88.2,9.9,8.2,0,0,1024,1024,1024,1024,0,0,0,0,99.3,0,100,4.086,4.069,4.04,4.043,0,0,0,32,10833.631646873,0,41,Motors_Started,
1200,2022-06-18 14:08:46,4.52537982634966,-73.7734230175062,0,,,10833.631646873,0.328084,0.223694,0.19958005888,0.25564961448,14,5,16.238,10833.631646873,0,0.223694,0.19958005888,0,-0.223694,0,88.1,11.8,8.3,0,0,1024,1024,1024,1024,0,0,0,0,99.2,0,100,4.086,4.069,4.04,4.043,0,0,0,32,10833.631646873,0,10,Assisted_Takeoff,
1300,2022-06-18 14:08:46,4.52537985294729,-73.7734231496019,0,,,10833.631646873,0.328084,0.223694,0.24732284256,0.304664707912,14,5,16.238,10833.631646873,0,0.223694,0.24732284256,0,-0.223694,0,88.1,13.3,7.8,0,0,1024,1024,1024,1024,0,0,0,0,99.2,0,100,4.086,4.069,4.04,4.043,0,0,0,32,10833.631646873,0,10,Assisted_Takeoff,
1400,2022-06-18 14:08:46,4.52537986791559,-73.7734232719855,0,,,10833.631646873,0.328084,0,0.291860901728,0.34951116604,14,5,16.238,10833.631646873,0,0.223694,0.291860901728,0,0,0,100.9,12.7,7.7,0,0,1024,1024,1024,1024,0,0,0,0,99.5,0,100,4.086,4.069,4.04,4.043,0,0,0,32,10833.631646873,0,10,Assisted_Takeoff,
1500,2022-06-18 14:08:46,4.52537981906858,-73.7734232747333,0,,,10833.631646873,0.328084,0,0.293150928016,0.36736221648,14,5,16.238,10833.631646873,0,0.223694,0.293150928016,0,0,0,101.4,10.5,8,0,0,1024,1024,1024,1024,0,0,0,0,100.1,0,100,4.086,4.069,4.04,4.043,0,0,0,32,10833.631646873,0,10,Assisted_Takeoff,
1600,2022-06-18 14:08:46,4.52537976507176,-73.773423309375,0,,,10833.631646873,0.328084,0,0.307250666,0.39074476316,14,5,16.238,10833.631646873,0,0.223694,0.307250666,0,0,0,101.8,9.4,9.2,0,0,1024,1024,1024,1024,0,0,0,0,100.2,0,100,4.086,4.069,4.04,4.043,0,0,0,32,10833.631646873,0,10,Assisted_Takeoff,
1700,2022-06-18 14:08:46,4.52537966575396,-73.7734233601294,0,,,10833.631646873,0.328084,0,0.33128938068,0.4314140558,14,5,16.238,10833.631646873,0,0.223694,0.33128938068,0,0,0.223694,101.7,8.7,10.2,0,0,1024,1024,1024,1024,0,0,0,0,100.1,0,100,4.086,4.069,4.04,4.043,0,0,0,32,10833.631646873,0,10,Assisted_Takeoff,
1800,2022-06-18 14:08:46,4.52537961015006,-73.7734233727831,0,,,10833.631646873,0.328084,0,0.34057743872,0.4522145814,14,5,16.238,10833.631646873,0,0.223694,0.34057743872,0,0,0.223694,101.6,7.9,10.5,0,0,1024,1024,1024,1024,0,0,0,0,100.2,0,100,4.086,4.069,4.04,4.043,0,0,0,32,10833.631646873,0,10,Assisted_Takeoff,
1900,2022-06-18 14:08:46,4.5253796670272,-73.7734232920396,0,,,10833.631646873,0.328084,0,0.30701772636,0.48817586864,14,5,16.238,10833.631646873,0,0.223694,0.34057743872,0,0,0,101.8,8.2,10.4,0,0,1024,1024,1024,1024,0,0,0,0,100.3,0,100,4.086,4.069,4.04,4.043,0,0,0,32,10833.631646873,0,10,Assisted_Takeoff,
2000,2022-06-18 14:08:46,4.52537966899542,-73.7734233195515,0,,,10833.631646873,0.328084,0,0.316618776536,0.49820867736,14,5,16.238,10833.631646873,0,0.223694,0.34057743872,0,0,0,101.6,8.7,10.3,0,0,1024,1024,1024,1024,0,0,0,0,99.8,0,100,4.086,4.069,4.04,4.043,0,0,0,32,10833.631646873,0,10,Assisted_Takeoff,
2100,2022-06-18 14:08:46,4.52537941166559,-73.7734234681826,0,,,10833.631646873,0.328084,0,0.3978182542,0.606545295,14,5,16.238,10833.631646873,0,0.223694,0.3978182542,0,0,0,101,9.2,9.6,0,0,1024,1024,1024,1024,0,0,0,0,99.4,0,100,4.086,4.069,4.04,4.043,0,0,0,32,10833.631646873,0,10,Assisted_Takeoff,
2200,2022-06-18 14:08:46,4.52537941846214,-73.7734235290925,0,,,10833.631646873,0.328084,0,0.41718505272,0.62883532196,14,5,16.782,10833.631646873,0,0.223694,0.41718505272,0,0,0,100.8,9.4,8.8,0,0,1024,1024,1024,1024,0,0,0,0,99.5,0,100,4.215,4.201,4.181,4.185,0,0,0,32,10833.631646873,0,10,Assisted_Takeoff,
2300,2022-06-18 14:08:47,4.52537957612251,-73.7734235334554,0,,,10833.631646873,0.328084,0,0.40023295244,0.68638125556,14,5,16.782,10833.631646873,0,0.223694,0.41718505272,0,0,0,101.2,9.7,8.1,0,0,1024,1024,1038,1024,0,0,2,0,100,0,100,4.215,4.201,4.181,4.185,0,0,0,32,10833.631646873,0,10,Assisted_Takeoff,
2400,2022-06-18 14:08:47,4.52537956782909,-73.7734235594748,0,,,10833.631646873,0.328084,0,0.41015749344,0.69631563908,14,5,16.782,10833.631646873,0,0.223694,0.41718505272,0,0,0.223694,101.7,9.1,8.2,0,0,1024,1024,1040,1024,0,0,2,0,100.2,0,100,4.215,4.201,4.181,4.185,0,0,0,32,10833.631646873,0,10,Assisted_Takeoff,
2500,2022-06-18 14:08:47,4.5253796536893,-73.7734235709792,0,,,10833.631646873,0.328084,0,0.40736221776,0.7279199708,14,5,16.782,10833.631646873,0,0.223694,0.41718505272,0,0,0.223694,101.8,8.2,9,0,0,1024,1024,1122,1024,0,0,15,0,100.2,0,100,4.215,4.201,4.181,4.185,0,0,0,32,10833.631646873,0,10,Assisted_Takeoff,
2600,2022-06-18 14:08:47,4.52537958875159,-73.7734235440543,0,,,10833.631646873,0.328084,0,0.40281825436,0.75355645456,14,5,16.782,10833.631646873,0,0.223694,0.41718505272,0,0,0.223694,101.5,6.9,10,0,0,1024,1024,1180,1024,0,0,24,0,100.2,0,100,4.215,4.201,4.181,4.185,0,0,0,32,10833.631646873,0,10,Assisted_Takeoff,
2700,2022-06-18 14:08:47,4.52537958790526,-73.7734235177596,0,,,10833.631646873,0.328084,0,0.39362534068,0.76312666484,14,5,16.782,10833.631646873,0,0.223694,0.41718505272,0,0,0.223694,101.3,6.1,11,0,0,1024,1024,1200,1024,0,0,27,0,100.2,0,100,4.215,4.201,4.181,4.185,0,0,0,32,10833.631646873,0,10,Assisted_Takeoff,
2800,2022-06-18 14:08:47,4.52537955298115,-73.7734235288362,-0.328084,,,10833.303562873,0.328084,0,0.40085959288,0.77648952616,14,5,16.782,10833.631646873,0,0.223694,0.41718505272,0,0,0,101.7,5.7,10.1,0,0,1024,1024,1210,1024,0,0,28,0,100.2,0,100,4.215,4.201,4.181,4.185,0,0,0,32,10833.303562873,-0.328084,10,Assisted_Takeoff,
2900,2022-06-18 14:08:47,4.52537949289959,-73.773423421627,0,,,10833.631646873,0.328084,0,0.37081366016,0.82122377956,14,5,16.782,10833.631646873,0,0.223694,0.41718505272,0,0,0,101.9,5.1,7.7,0,0,1024,1024,1210,1024,0,0,28,0,100.2,0,100,4.215,4.201,4.181,4.185,0,0,0,32,10833.631646873,0,6,P-GPS,
3000,2022-06-18 14:08:47,4.5253795417911,-73.7734234686314,0,,,10833.631646873,0.328084,0,0.38107612768,0.84592850476,14,5,16.782,10833.631646873,0,0.223694,0.41718505272,0,0,0,102,4,5.6,0,0,1024,1024,1217,1024,0,0,29,0,100.2,0,100,4.215,4.201,4.181,4.185,0,0,0,32,10833.631646873,0,6,P-GPS,
3100,2022-06-18 14:08:47,4.52537950275589,-73.7734236086757,0,,,10833.631646873,0.328084,0,0.43393702176,0.8988189264,14,5,16.782,10833.631646873,0,0.223694,0.43393702176,0,0,0,102,2.9,4,0,0,1024,1024,1223,1024,0,0,30,0,100.2,0,100,4.215,4.201,4.181,4.185,0,0,0,32,10833.631646873,0,6,P-GPS,
3200,2022-06-18 14:08:48,4.52537954757533,-73.7734236375292,0,,,10833.631646873,0.328084,0,0.43949148388,0.91824806088,14,5,16.601,10833.631646873,0,0.223694,0.43949148388,0,0,0,102.2,2.5,3.1,0,0,1024,1024,1228,1024,0,0,31,0,100.2,0,100,4.183,4.165,4.136,4.117,0,0,0,32,10833.631646873,0,6,P-GPS,
3300,2022-06-18 14:08:48,4.52537959711904,-73.7734238415246,0,,,10833.631646873,0.328084,0,0.50788059368,0.99461617356,14,5,16.601,10833.631646873,0,0.223694,0.50788059368,0,0,0,102.2,2.2,2.5,0,0,1024,1024,1246,1024,0,0,34,0,100.2,0,100,4.183,4.165,4.136,4.117,0,0,0,32,10833.631646873,0,6,P-GPS,
3400,2022-06-18 14:08:48,4.52537965401357,-73.7734238562952,0,,,10833.631646873,0.328084,0,0.50974082996,1.01605646296,14,5,16.601,10833.631646873,0,0.223694,0.50974082996,0,0,0,102,2.1,1.8,0,0,1024,1024,1307,1024,0,0,43,0,100.2,0,100,4.183,4.165,4.136,4.117,0,0,0,32,10833.631646873,0,6,P-GPS,
3500,2022-06-18 14:08:48,4.52537955113293,-73.7734239892557,0,,,10833.631646873,0.328084,0,0.56383531988,1.07727365652,14,5,16.601,10833.631646873,0,0.223694,0.56383531988,0,0,0,101.8,2.1,1.2,0,0,1024,1024,1363,1024,0,0,51,0,100.2,0,100,4.183,4.165,4.136,4.117,0,0,0,32,10833.631646873,0,6,P-GPS,
3600,2022-06-18 14:08:48,4.52537956899622,-73.7734240242999,0,,,10833.631646873,0.328084,0,0.57511156696,1.09159124228,14,5,16.601,10833.631646873,0,0.223694,0.57511156696,0,0,0,101.5,2.6,0.8,0,0,1024,1024,1375,1024,0,0,53,0,100.2,0,100,4.183,4.165,4.136,4.117,0,0,0,32,10833.631646873,0,6,P-GPS,
3700,2022-06-18 14:08:48,4.52537964109747,-73.7734239810407,0,,,10833.631646873,0.328084,0,0.55531825924,1.1222441304,14,5,16.601,10833.631646873,0,0.223694,0.57511156696,0,0,0,101.1,2.9,0.3,0,0,1024,1024,1454,1024,0,0,65,0,100.2,0,100,4.183,4.165,4.136,4.117,0,0,0,32,10833.631646873,0,6,P-GPS,
3800,2022-06-18 14:08:48,4.52537965423309,-73.7734240337801,0,,,10833.631646873,0.328084,0,0.57367783988,1.14201447224,14,5,16.601,10833.631646873,0,0.223694,0.57511156696,0,0,0,100.7,3.1,-0.3,0,0,1024,1024,1503,1024,0,0,73,0,100.2,0,100,4.183,4.165,4.136,4.117,0,0,0,32,10833.631646873,0,6,P-GPS,
3900,2022-06-18 14:08:48,4.52537965715792,-73.7734240347636,0,,,10833.631646873,0.328084,0,0.57389437532,1.14313980036,14,5,16.601,10833.631646873,0,0.223694,0.57511156696,0,0,0,100.4,3.5,-0.4,0,0,1024,1024,1576,1024,0,0,84,0,100.2,0,100,4.183,4.165,4.136,4.117,0,0,0,32,10833.631646873,0,6,P-GPS,
4000,2022-06-18 14:08:48,4.52537963677191,-73.7734241269298,0,,,10833.631646873,0.328084,0,0.60809713232,1.1774770718,14,5,16.601,10833.631646873,0,0.223694,0.60809713232,0,0,0,100.5,2.9,-0.5,0,0,1024,1024,1626,1024,0,0,91,0,100.2,0,100,4.183,4.165,4.136,4.117,0,0,0,32,10833.631646873,0,6,P-GPS,
4100,2022-06-18 14:08:48,4.52537955311763,-73.7734243257039,0,,,10833.631646873,0.328084,0.223694,0.68410107176,1.25595148376,14,5,16.601,10833.631646873,0,0.223694,0.68410107176,0,-0.223694,-0.223694,100.8,0.5,-0.1,0,0,1024,1024,1670,1024,0,0,98,0,100.2,0,100,4.183,4.165,4.136,4.117,0,0,0,32,10833.631646873,0,6,P-GPS,
4200,2022-06-18 14:08:49,4.52537950456732,-73.7734245477145,0,,,10833.631646873,0.328084,0.447388,0.76666341036,1.33861880924,14,5,15.775,10833.631646873,0,0.447388,0.76666341036,0,-0.447388,-0.447388,101.2,-1.9,-0.4,0,0,1024,1024,1684,1024,0,0,100,0,100.2,0,100,4.006,3.979,3.933,3.857,0,0,0,32,10833.631646873,0,6,P-GPS,
4300,2022-06-18 14:08:49,4.52537943685828,-73.7734247713159,0,,,10833.631646873,0.328084,0.4921268,0.85104661516,1.42361553112,14,5,15.775,10833.631646873,0,0.4921268,0.85104661516,-0.223694,-0.447388,-0.894776,101.5,-3.5,-1.3,0,0,1024,1024,1684,1024,0,0,100,0,100.2,0,100,4.006,3.979,3.933,3.857,0,0,0,32,10833.631646873,0,6,P-GPS,
4400,2022-06-18 14:08:49,4.52537934103601,-73.7734250214614,0,,,10833.631646873,0.328084,0.4921268,0.94700462348,1.52108272584,14,5,15.775,10833.631646873,0,0.4921268,0.94700462348,-0.223694,-0.447388,-1.565858,101.6,-4.1,-2.2,0,0,1024,1024,1684,1024,0,0,100,0,100.2,0,100,4.006,3.979,3.933,3.857,0,0,0,32,10833.631646873,0,6,P-GPS,
4500,2022-06-18 14:08:49,4.52537918319757,-73.7734249772818,0.328084,,,10833.959730873,3.937008,0.3131716,0.94458008272,1.58086947316,14,5,15.775,10833.959730873,0.328084,0.4921268,0.94700462348,-0.223694,-0.223694,-2.460634,101.6,-4,-2.8,0,0,1024,1024,1412,1024,0,0,59,0,100.2,0,100,4.006,3.979,3.933,3.857,0,0,0,32,10833.959730873,0.328084,6,P-GPS,
4600,2022-06-18 14:08:49,4.52537909606541,-73.7734251605542,0.984252,,,10834.615898873,4.265092,0.223694,1.01729990132,1.65472118156,14,5,15.775,10834.615898873,0.984252,0.4921268,1.01729990132,0,-0.223694,-3.131716,101.5,-4.2,-2.9,0,0,1024,1024,1024,1024,0,0,0,0,100.2,0,100,4.006,3.979,3.933,3.857,0,0,0,32,10834.615898873,0.984252,6,P-GPS,
4700,2022-06-18 14:08:49,4.52537910616212,-73.7734255589356,1.312336,,,10834.943982873,7.545932,0.223694,1.15649938084,1.79966213108,14,5,15.775,10834.943982873,1.312336,0.4921268,1.15649938084,0,-0.223694,-3.802798,101.8,-5.2,-2.5,0,0,1024,1024,1024,1024,0,0,0,0,100.2,0,100,4.006,3.979,3.933,3.857,0,0,0,32,10834.943982873,1.312336,6,P-GPS,
4800,2022-06-18 14:08:49,4.52537904381411,-73.7734257106462,1.968504,,,10835.600150873,7.874016,0.223694,1.21552825412,1.85934717236,14,5,15.775,10835.600150873,1.968504,0.4921268,1.21552825412,0,-0.223694,-3.802798,101.9,-5.6,-3,0,0,1024,1024,1024,1024,0,0,0,0,100.2,0,100,4.006,3.979,3.933,3.857,0,0,0,32,10835.600150873,1.968504,6,P-GPS,
4900,2022-06-18 14:08:49,4.52537912037769,-73.7734257396629,2.624672,,,10836.256318873,8.530184,0,1.21931106264,1.88920937804,14,5,15.775,10836.256318873,2.624672,0.4921268,1.21931106264,0,0,-3.579104,102,-5.6,-3,0,0,1024,1024,1024,1024,0,0,0,0,100.2,0,100,4.006,3.979,3.933,3.857,0,0,0,32,10836.256318873,2.624672,6,P-GPS,
5000,2022-06-18 14:08:49,4.52537908166993,-73.7734258247757,2.952756,,,10836.584402873,9.186352,0,1.25263783536,1.92323496968,14,5,15.775,10836.584402873,2.952756,0.4921268,1.25263783536,0,0,-3.131716,101.9,-5.3,-3,0,0,1024,1024,1024,1024,0,0,0,0,100.2,0,100,4.006,3.979,3.933,3.857,0,0,0,32,10836.584402873,2.952756,6,P-GPS,
5100,2022-06-18 14:08:49,4.52537922656507,-73.7734256827812,3.608924,,,10837.240570873,9.514436,0,1.1910597494,1.99713917152,14,5,15.775,10837.240570873,3.608924,0.4921268,1.25263783536,0,0,-2.684328,101.9,-4.7,-3.1,0,0,1024,1024,1024,1024,0,0,0,0,100.2,0,100,4.006,3.979,3.933,3.857,0,0,0,32,10837.240570873,3.608924,6,P-GPS,
5200,2022-06-18 14:08:50,4.5253792101174,-73.77342571738,3.937008,,,10837.568654873,10.170604,0,1.20457024852,2.01107946068,14,5,15.775,10837.568654873,3.937008,0.4921268,1.25263783536,0,0,-2.013246,101.9,-4.4,-3.1,0,0,1024,1024,1024,1024,0,0,0,0,100.2,0,100,4.006,3.979,3.933,3.857,0,0,0,32,10837.568654873,3.937008,6,P-GPS,
5300,2022-06-18 14:08:50,4.52537944545643,-73.7734258846671,4.265092,,,10837.896738873,10.170604,0,1.25111880644,2.11631568452,14,5,15.775,10837.896738873,4.265092,0.4921268,1.25263783536,0,0,-1.342164,101.8,-3.6,-2.9,0,0,1024,1024,1024,1024,0,0,0,0,100.2,0,100,4.006,3.979,3.933,3.857,0,0,0,32,10837.896738873,4.265092,6,P-GPS,
5400,2022-06-18 14:08:50,4.52537946405886,-73.773425915361,4.265092,,,10837.896738873,10.498688,0,1.26141408236,2.1293799894,14,5,15.775,10837.896738873,4.265092,0.4921268,1.26141408236,0,0,-0.671082,101.6,-2.5,-2.9,0,0,1173,1024,1024,1024,23,0,0,0,100.2,0,100,4.006,3.979,3.933,3.857,0,0,0,32,10837.896738873,4.265092,6,P-GPS,
5500,2022-06-18 14:08:50,4.52537949420333,-73.7734259107427,4.593176,,,10838.224822873,10.498688,0,1.25854334736,2.14050531784,14,5,15.775,10838.224822873,4.593176,0.4921268,1.26141408236,0,0,-0.223694,101.5,-1.6,-2.5,0,0,1277,1024,1024,1024,38,0,0,0,100.2,0,100,4.006,3.979,3.933,3.857,0,0,0,32,10838.224822873,4.593176,6,P-GPS,
5600,2022-06-18 14:08:50,4.52537953621752,-73.7734259614992,4.593176,,,10838.224822873,10.498688,0,1.27540686496,2.1645013816,14,5,15.775,10838.224822873,4.593176,0.4921268,1.27540686496,0,0,0,101.3,-2.2,-2.4,0,0,1280,1024,1024,1024,39,0,0,0,100.2,0,100,4.006,3.979,3.933,3.857,0,0,0,32,10838.224822873,4.593176,6,P-GPS,
5700,2022-06-18 14:08:50,4.5253795523102,-73.773426067225,4.593176,,,10838.224822873,10.498688,0,1.31319558008,2.20340230148,14,5,15.775,10838.224822873,4.593176,0.4921268,1.31319558008,0,0,0,101.4,-4.3,-1.9,0,0,1266,1024,1024,1024,37,0,0,0,100.2,0,100,4.006,3.979,3.933,3.857,0,0,0,32,10838.224822873,4.593176,6,P-GPS,
5800,2022-06-18 14:08:50,4.52537959657663,-73.7734261235999,4.593176,,,10838.224822873,10.498688,0,1.33237865156,2.22950138368,14,5,15.775,10838.224822873,4.593176,0.4921268,1.33237865156,0,0,0.223694,101.4,-5.8,-1.4,0,0,1253,1024,1041,1024,35,0,3,0,100.2,0,100,4.006,3.979,3.933,3.857,0,0,0,32,10838.224822873,4.593176,6,P-GPS,
5900,2022-06-18 14:08:50,4.52537969352548,-73.7734258795502,4.593176,,,10838.224822873,10.498688,0,1.24166014472,2.32505584868,14,5,15.775,10838.224822873,4.593176,0.4921268,1.33237865156,0,0,0.223694,101.5,-7,-1.2,0,0,1251,1024,1041,1024,34,0,3,0,100.2,0,100,4.006,3.979,3.933,3.857,0,0,0,32,10838.224822873,4.593176,6,P-GPS,
6000,2022-06-18 14:08:50,4.52537969849141,-73.7734258288922,4.265092,,,10837.896738873,10.498688,0.223694,1.22316933048,2.3435696288,14,5,15.775,10838.224822873,4.593176,0.4921268,1.33237865156,0,0.223694,0.223694,101.6,-7.1,-1.3,0,0,1234,1024,1041,1024,32,0,3,0,100.2,0,100,4.006,3.979,3.933,3.857,0,0,0,32,10837.896738873,4.265092,6,P-GPS,
6100,2022-06-18 14:08:50,4.52537982771436,-73.7734259132956,4.265092,,,10837.896738873,10.170604,0.223694,1.25255253352,2.39982947312,14,5,15.775,10838.224822873,4.593176,0.4921268,1.33237865156,0,0.223694,0.223694,101.8,-7.1,-1.7,0,0,1217,1024,1041,1024,29,0,3,0,100.2,0,100,4.006,3.979,3.933,3.857,0,0,0,32,10837.896738873,4.265092,6,P-GPS,
6200,2022-06-18 14:08:50,4.52537979333796,-73.7734257732108,4.265092,,,10837.896738873,10.170604,0.447388,1.20177825368,2.45229994724,14,5,16.024,10838.224822873,4.593176,0.4921268,1.33237865156,0,0.447388,0,101.8,-6.5,-2,0,0,1204,1024,1041,1024,27,0,3,0,100.2,0,100,4.023,4.013,3.988,4,0,0,0,32,10837.896738873,4.265092,6,P-GPS,
6300,2022-06-18 14:08:51,4.52537960269775,-73.7734256824744,4.265092,,,10837.896738873,10.170604,0.4921268,1.17222116612,2.52928813868,14,5,16.024,10838.224822873,4.593176,0.4921268,1.33237865156,-0.223694,0.447388,0,101.8,-5.9,-2.4,0,0,1197,1024,1041,1024,26,0,3,0,100.2,0,100,4.023,4.013,3.988,4,0,0,0,32,10837.896738873,4.265092,6,P-GPS,
6400,2022-06-18 14:08:51,4.52537953100278,-73.7734254646965,4.265092,,,10837.896738873,10.170604,0.4921268,1.09580384084,2.61270349568,14,5,16.024,10838.224822873,4.593176,0.4921268,1.33237865156,-0.223694,0.447388,0,101.9,-5.5,-2.5,0,0,1178,1024,1041,1024,23,0,3,0,100.2,0,100,4.023,4.013,3.988,4,0,0,0,32,10837.896738873,4.265092,6,P-GPS,
6500,2022-06-18 14:08:51,4.52537965632424,-73.7734252708904,4.265092,,,10837.896738873,10.170604,0.7158208,1.0214731298,2.69672252724,14,5,16.024,10838.224822873,4.593176,0.7158208,1.33237865156,-0.223694,0.671082,0,101.9,-5.1,-2.3,0,0,1173,1024,1038,1024,23,0,2,0,100.2,0,100,4.023,4.013,3.988,4,0,0,0,32,10837.896738873,4.265092,6,P-GPS,
6600,2022-06-18 14:08:51,4.52537959286975,-73.7734249940177,4.265092,,,10837.896738873,10.498688,0.7158208,0.92318244424,2.80005258304,14,5,16.024,10838.224822873,4.593176,0.7158208,1.33237865156,-0.223694,0.671082,0,101.9,-4.5,-2.3,0,0,1175,1024,1041,1024,23,0,3,0,100.2,0,100,4.023,4.013,3.988,4,0,0,0,32,10837.896738873,4.265092,6,P-GPS,
6700,2022-06-18 14:08:51,4.52537965786287,-73.7734245971489,4.265092,,,10837.896738873,10.498688,0.7158208,0.7771981876,2.94633211528,14,5,16.024,10838.224822873,4.593176,0.7158208,1.33237865156,-0.223694,0.671082,0,101.9,-4.2,-2.6,0,0,1181,1024,1041,1024,24,0,3,0,100.2,0,100,4.023,4.013,3.988,4,0,0,0,32,10837.896738873,4.265092,6,P-GPS,
6800,2022-06-18 14:08:51,4.52537960325736,-73.7734242772088,4.265092,,,10837.896738873,10.498688,0.7158208,0.66390750156,3.06439314268,14,5,16.024,10838.224822873,4.593176,0.7158208,1.33237865156,-0.223694,0.671082,0,101.9,-4.3,-2.4,0,0,1184,1024,1041,1024,24,0,3,0,100.2,0,100,4.023,4.013,3.988,4,0,0,0,32,10837.896738873,4.265092,6,P-GPS,
6900,2022-06-18 14:08:51,4.52537953592553,-73.7734239390144,4.265092,,,10837.896738873,10.498688,0.9171454,0.54709319336,3.18982621756,15,5,16.024,10838.224822873,4.593176,0.9171454,1.33237865156,-0.223694,0.894776,0,101.9,-4,-2.3,0,0,1199,1024,1041,1024,27,0,3,0,100.2,0,100,4.023,4.013,3.988,4,0,0,0,32,10837.896738873,4.265092,6,P-GPS,
7000,2022-06-18 14:08:51,4.52537947293505,-73.7734235903377,4.265092,,,10837.896738873,10.826772,0.9171454,0.43098426576,3.3187008936,15,5,16.024,10838.224822873,4.593176,0.9171454,1.33237865156,-0.223694,0.894776,0,101.9,-3.7,-2.6,0,0,1205,1024,1041,1024,27,0,3,0,100.2,0,100,4.023,4.013,3.988,4,0,0,0,32,10837.896738873,4.265092,6,P-GPS,
7100,2022-06-18 14:08:51,4.52537957498671,-73.7734229377785,4.265092,,,10837.896738873,10.826772,0.9171454,0.198873365944,3.5589568068,14,5,16.024,10838.224822873,4.593176,0.9171454,1.33237865156,-0.223694,0.894776,0,101.7,-3.5,-2.7,0,0,1198,1024,1041,1024,26,0,3,0,100.2,0,100,4.023,4.013,3.988,4,0,0,0,32,10837.896738873,4.265092,6,P-GPS,
7200,2022-06-18 14:08:52,4.52537953459127,-73.7734225505329,4.265092,,,10837.896738873,10.826772,0.9171454,0.121113192852,3.7005578612,14,5,15.59,10838.224822873,4.593176,0.9171454,1.33237865156,-0.223694,0.894776,0,101.7,-3.8,-2.9,0,0,1201,1024,1041,1024,27,0,3,0,100.2,0,100,3.932,3.913,3.869,3.876,0,0,0,32,10837.896738873,4.265092,6,P-GPS,
7300,2022-06-18 14:08:52,4.5253794881943,-73.7734221777308,4.265092,,,10837.896738873,10.826772,0.9171454,0.171279204956,3.8372048472,14,5,15.59,10838.224822873,4.593176,0.9171454,1.33237865156,-0.223694,0.894776,0,101.5,-4.1,-2.6,0,0,1198,1024,1041,1024,26,0,3,0,100.2,0,100,3.932,3.913,3.869,3.876,0,0,0,32,10837.896738873,4.265092,6,P-GPS,
7400,2022-06-18 14:08:52,4.52537946082874,-73.7734217795166,4.593176,,,10838.224822873,10.826772,0.9171454,0.289567594568,3.9823820172,14,5,15.59,10838.224822873,4.593176,0.9171454,1.33237865156,-0.223694,0.894776,0,101.6,-4.1,-2.6,0,0,1185,1024,1041,1024,24,0,3,0,100.2,0,100,3.932,3.913,3.869,3.876,0,0,0,32,10838.224822873,4.593176,6,P-GPS,
7500,2022-06-18 14:08:52,4.52537927508549,-73.7734213162864,4.593176,,,10838.224822873,10.826772,0.9171454,0.47008203604,4.1640093196,14,5,15.59,10838.224822873,4.593176,0.9171454,1.33237865156,-0.223694,0.894776,0,101.5,-4.1,-2.5,0,0,1194,1024,1024,1024,26,0,0,0,100.2,0,100,3.932,3.913,3.869,3.876,0,0,0,32,10838.224822873,4.593176,6,P-GPS,
7600,2022-06-18 14:08:52,4.52537924260382,-73.7734209076551,4.593176,,,10838.224822873,10.826772,0.894776,0.61067587256,4.3130906892,14,5,15.59,10838.224822873,4.593176,0.9171454,1.33237865156,0,0.894776,0,101.7,-4.5,-2.4,0,0,1193,1024,1024,1024,26,0,0,0,100.2,0,100,3.932,3.913,3.869,3.876,0,0,0,32,10838.224822873,4.593176,6,P-GPS,
7700,2022-06-18 14:08:52,4.5253793570084,-73.7734204807022,4.593176,,,10838.224822873,10.826772,0.894776,0.74600068004,4.4738846576,14,5,15.59,10838.224822873,4.593176,0.9171454,1.33237865156,0,0.894776,0,101.7,-5.1,-2.2,0,0,1195,1024,1024,1024,26,0,0,0,100.2,0,100,3.932,3.913,3.869,3.876,0,0,0,32,10838.224822873,4.593176,6,P-GPS,
7800,2022-06-18 14:08:52,4.52537933633069,-73.7734200406968,4.593176,,,10838.224822873,10.826772,0.9171454,0.90358926776,4.6341208832,14,5,15.59,10838.224822873,4.593176,0.9171454,1.33237865156,-0.223694,0.894776,0,101.7,-5.1,-1.9,0,0,1201,1024,1024,1024,27,0,0,0,100.2,0,100,3.932,3.913,3.869,3.876,0,0,0,32,10838.224822873,4.593176,6,P-GPS,
7900,2022-06-18 14:08:52,4.52537938060536,-73.773419447024,4.593176,,,10838.224822873,10.826772,1.1408394,1.11298559992,4.8506235148,14,5,15.59,10838.224822873,4.593176,1.1408394,1.33237865156,-0.223694,1.11847,0,101.7,-4.5,-1.8,0,0,1217,1024,1024,1024,29,0,0,0,100.2,0,100,3.932,3.913,3.869,3.876,0,0,0,32,10838.224822873,4.593176,6,P-GPS,
8000,2022-06-18 14:08:52,4.52537934509481,-73.7734189579647,4.593176,,,10838.224822873,10.826772,1.1408394,1.29079072372,5.0289699772,14,5,15.59,10838.224822873,4.593176,1.1408394,1.33237865156,-0.223694,1.11847,0,101.6,-3.9,-2.4,0,0,1217,1024,1024,1024,29,0,0,0,100.2,0,100,3.932,3.913,3.869,3.876,0,0,0,32,10838.224822873,4.593176,6,P-GPS,
8100,2022-06-18 14:08:52,4.5253791921847,-73.7734182526556,4.593176,,,10838.224822873,10.826772,1.1408394,1.55279532528,5.291502794,14,5,15.59,10838.224822873,4.593176,1.1408394,1.55279532528,-0.223694,1.11847,0,101.5,-4,-2.8,0,0,1245,1024,1024,1024,33,0,0,0,100.2,0,100,3.932,3.913,3.869,3.876,0,0,0,32,10838.224822873,4.593176,6,P-GPS,
8200,2022-06-18 14:08:53,4.52537915080624,-73.7734177317633,4.593176,,,10838.224822873,10.826772,1.1408394,1.74234585628,5.4815618552,14,5,15.606,10838.224822873,4.593176,1.1408394,1.74234585628,-0.223694,1.11847,0,101.4,-4.4,-2.9,0,0,1254,1024,1024,1024,35,0,0,0,100.2,0,100,3.935,3.913,3.874,3.884,0,0,0,32,10838.224822873,4.593176,6,P-GPS,
8300,2022-06-18 14:08:53,4.52537906460196,-73.7734171596958,4.593176,,,10838.224822873,10.826772,1.11847,1.95277893388,5.6919949328,14,5,15.606,10838.224822873,4.593176,1.1408394,1.95277893388,0,1.11847,0,101.2,-4.9,-2.6,0,0,1252,1024,1024,1024,35,0,0,0,100.2,0,100,3.935,3.913,3.874,3.884,0,0,0,32,10838.224822873,4.593176,6,P-GPS,
8400,2022-06-18 14:08:53,4.52537903409514,-73.773416608088,4.593176,,,10838.224822873,10.826772,1.11847,2.15292329724,5.8929135744,14,5,15.606,10838.224822873,4.593176,1.1408394,2.15292329724,0,1.11847,0,101.2,-5.6,-1.9,0,0,1238,1024,1024,1024,32,0,0,0,100.2,0,100,3.935,3.913,3.874,3.884,0,0,0,32,10838.224822873,4.593176,6,P-GPS,
8500,2022-06-18 14:08:53,4.52537914413876,-73.7734160843397,4.593176,,,10838.224822873,10.826772,1.3645334,2.33690296192,6.08759862,14,5,15.606,10838.224822873,4.593176,1.3645334,2.33690296192,-0.223694,1.342164,0,101.3,-6.1,-1.6,0,0,1232,1024,1024,1024,32,0,0,0,100.2,0,100,3.935,3.913,3.874,3.884,0,0,0,32,10838.224822873,4.593176,6,P-GPS,
8600,2022-06-18 14:08:53,4.5253790990379,-73.773415473762,4.593176,,,10838.224822873,10.498688,1.3645334,2.55944233912,6.3103020392,14,5,15.606,10838.224822873,4.593176,1.3645334,2.55944233912,-0.223694,1.342164,0,101.5,-6.2,-1.3,0,0,1231,1024,1024,1024,31,0,0,0,100.2,0,100,3.935,3.913,3.874,3.884,0,0,0,32,10838.224822873,4.593176,6,P-GPS,
8700,2022-06-18 14:08:53,4.5253791049664,-73.7734149129052,4.593176,,,10838.224822873,10.498688,1.5882274,2.76211294928,6.5143046704,14,5,15.606,10838.224822873,4.593176,1.5882274,2.76211294928,-0.223694,1.565858,0,101.6,-5.7,-1.6,0,0,1206,1024,1024,1024,28,0,0,0,100.2,0,100,3.935,3.913,3.874,3.884,0,0,0,32,10838.224822873,4.593176,6,P-GPS,
8800,2022-06-18 14:08:53,4.52537901395689,-73.773414230471,4.593176,,,10838.224822873,10.498688,1.6329662,3.01240495204,6.7646983792,14,5,15.606,10838.224822873,4.593176,1.6329662,3.01240495204,-0.447388,1.565858,0,101.7,-5,-2.5,0,0,1181,1024,1024,1024,24,0,0,0,100.2,0,100,3.935,3.913,3.874,3.884,0,0,0,32,10838.224822873,4.593176,6,P-GPS,
8900,2022-06-18 14:08:53,4.52537881966433,-73.7734135581186,4.593176,,,10838.224822873,10.826772,1.6329662,3.2632218892,7.0193243716,14,5,15.606,10838.224822873,4.593176,1.6329662,3.2632218892,-0.447388,1.565858,0,101.8,-4.4,-2.4,0,0,1147,1024,1024,1024,19,0,0,0,100.2,0,100,3.935,3.913,3.874,3.884,0,0,0,32,10838.224822873,4.593176,6,P-GPS,
9000,2022-06-18 14:08:53,4.52537870241719,-73.7734128276816,4.593176,,,10838.224822873,10.498688,1.6329662,3.5320867272,7.2884188684,14,5,15.606,10838.224822873,4.593176,1.6329662,3.5320867272,-0.447388,1.565858,0,101.8,-3.4,-2.4,0,0,1121,1024,1024,1024,15,0,0,0,100.2,0,100,3.935,3.913,3.874,3.884,0,0,0,32,10838.224822873,4.593176,6,P-GPS,
9100,2022-06-18 14:08:53,4.52537863537113,-73.7734120362589,4.593176,,,10838.224822873,10.826772,1.6329662,3.8208006472,7.5772968304,14,5,15.606,10838.224822873,4.593176,1.6329662,3.8208006472,-0.447388,1.565858,0,101.8,-2.3,-2.7,0,0,1108,1024,1024,1024,13,0,0,0,100.2,0,100,3.935,3.913,3.874,3.884,0,0,0,32,10838.224822873,4.593176,6,P-GPS,
9200,2022-06-18 14:08:53,4.52537852020299,-73.7734113012411,4.593176,,,10838.224822873,10.826772,1.6329662,4.0912402884,7.847933322,14,5,15.666,10838.224822873,4.593176,1.6329662,4.0912402884,-0.447388,1.565858,0,101.8,-1.8,-2.3,0,0,1120,1024,1024,1024,15,0,0,0,100.2,0,99,3.946,3.93,3.892,3.898,0,0,0,32,10838.224822873,4.593176,6,P-GPS,
9300,2022-06-18 14:08:54,4.52537842295725,-73.7734106154164,4.593176,,,10838.224822873,10.826772,1.6329662,4.3431103752,8.0998690256,14,5,15.666,10838.224822873,4.593176,1.6329662,4.3431103752,-0.447388,1.565858,0,101.7,-1.7,-1.9,0,0,1131,1024,1024,1024,16,0,0,0,100.2,0,99,3.946,3.93,3.892,3.898,0,0,0,32,10838.224822873,4.593176,6,P-GPS,
9400,2022-06-18 14:08:54,4.52537831268928,-73.7734099299342,4.593176,,,10838.224822873,10.826772,1.6329662,4.595472588,8.3524280888,14,5,15.666,10838.224822873,4.593176,1.6329662,4.595472588,-0.447388,1.565858,0,101.4,-1.5,-2.3,0,0,1152,1024,1024,1024,19,0,0,0,100.2,0,99,3.946,3.93,3.892,3.898,0,0,0,32,10838.224822873,4.593176,6,P-GPS,
9500,2022-06-18 14:08:54,4.52537808850879,-73.7734092331455,4.593176,,,10838.224822873,10.498688,1.4092722,4.85728362,8.6187338716,14,5,15.666,10838.224822873,4.593176,1.6329662,4.85728362,-0.447388,1.342164,0,101.6,-1.7,-2.9,0,0,1152,1024,1024,1024,19,0,0,0,100.2,0,99,3.946,3.93,3.892,3.898,0,0,0,32,10838.224822873,4.593176,6,P-GPS,
9600,2022-06-18 14:08:54,4.52537797898324,-73.7734085883292,4.593176,,,10838.224822873,10.498688,1.4092722,5.0950460948,8.85662758,14,5,15.666,10838.224822873,4.593176,1.6329662,5.0950460948,-0.447388,1.342164,0,101.7,-1.9,-2.9,0,0,1137,1024,1024,1024,17,0,0,0,100.2,0,99,3.946,3.93,3.892,3.898,0,0,0,32,10838.224822873,4.593176,6,P-GPS,
9700,2022-06-18 14:08:54,4.52537762022158,-73.7734081644525,4.593176,,,10838.224822873,10.498688,1.4092722,5.2665356016,9.0588585576,14,5,15.666,10838.224822873,4.593176,1.6329662,5.2665356016,-0.447388,1.342164,0,101.8,-2.2,-2.9,0,0,1098,1024,1024,1024,11,0,0,0,100.2,0,99,3.946,3.93,3.892,3.898,0,0,0,32,10838.224822873,4.593176,6,P-GPS,
9800,2022-06-18 14:08:54,4.52537749964154,-73.7734075699793,4.593176,,,10838.224822873,10.498688,1.3645334,5.4869752412,9.279527856,14,5,15.666,10838.224822873,4.593176,1.6329662,5.4869752412,-0.223694,1.342164,0,101.5,-2.1,-2.8,0,0,1077,1024,1024,1024,8,0,0,0,100.2,0,99,3.946,3.93,3.892,3.898,0,0,0,32,10838.224822873,4.593176,6,P-GPS,
9900,2022-06-18 14:08:54,4.52537750544693,-73.7734069994617,4.593176,,,10838.224822873,10.498688,1.3645334,5.6916996572,9.487040986,14,5,15.666,10838.224822873,4.593176,1.6329662,5.6916996572,-0.223694,1.342164,0,101.7,-1.9,-2.9,0,0,1077,1024,1024,1024,8,0,0,0,100.2,0,99,3.946,3.93,3.892,3.898,0,0,0,32,10838.224822873,4.593176,6,P-GPS,
10000,2022-06-18 14:08:54,4.52537740475486,-73.7734064408149,4.593176,,,10838.224822873,10.498688,1.1408394,5.8980973016,9.6935042472,14,5,15.666,10838.224822873,4.593176,1.6329662,5.8980973016,-0.223694,1.11847,0,101.7,-2,-2.9,0,0,1068,1024,1024,1024,7,0,0,0,100.2,0,99,3.946,3.93,3.892,3.898,0,0,0,32,10838.224822873,4.593176,6,P-GPS,
10100,2022-06-18 14:08:54,4.525377220768,-73.7734059319138,4.593176,,,10838.224822873,10.498688,1.1408394,6.0913387776,9.8903874556,14,5,15.666,10838.224822873,4.593176,1.6329662,6.0913387776,-0.223694,1.11847,0,101.7,-2.2,-2.8,0,0,1044,1024,1024,1024,3,0,0,0,100.2,0,99,3.946,3.93,3.892,3.898,0,0,0,32,10838.224822873,4.593176,6,P-GPS,
10200,2022-06-18 14:08:55,4.52537712921743,-73.773405406305,4.593176,,,10838.224822873,10.498688,1.1408394,6.2854004636,10.08448195,14,5,15.599,10838.224822873,4.593176,1.6329662,6.2854004636,-0.223694,1.11847,0,101.9,-1.9,-2.7,0,0,1037,1024,1024,1024,2,0,0,0,100.2,0,99,3.931,3.914,3.875,3.879,0,0,0,32,10838.224822873,4.593176,6,P-GPS,
10300,2022-06-18 14:08:55,4.52537692291655,-73.7734049793694,4.593176,,,10838.224822873,10.498688,1.1408394,6.4508204164,10.2570213256,14,5,15.599,10838.224822873,4.593176,1.6329662,6.4508204164,-0.223694,1.11847,0,101.9,0,-2.7,0,0,1024,1024,1024,1024,0,0,0,0,100.2,0,99,3.931,3.914,3.875,3.879,0,0,0,32,10838.224822873,4.593176,6,P-GPS,
10400,2022-06-18 14:08:55,4.52537682624277,-73.7734045175345,4.593176,,,10838.224822873,10.498688,0.9171454,6.6223427316,10.4286748744,14,5,15.599,10838.224822873,4.593176,1.6329662,6.6223427316,-0.223694,0.894776,0,101.9,2.1,-3,0,0,1024,1024,1024,1024,0,0,0,0,100.2,0,99,3.931,3.914,3.875,3.879,0,0,0,32,10838.224822873,4.593176,6,P-GPS,
10500,2022-06-18 14:08:55,4.52537662760973,-73.7734042333811,4.593176,,,10838.224822873,10.498688,0.7158208,6.736548772,10.5548887892,14,5,15.599,10838.224822873,4.593176,1.6329662,6.736548772,-0.223694,0.671082,0,101.7,2.9,-2.8,0,0,1024,1024,1024,1024,0,0,0,0,100.2,0,99,3.931,3.914,3.875,3.879,0,0,0,32,10838.224822873,4.593176,6,P-GPS,
10600,2022-06-18 14:08:55,4.5253765558052,-73.7734039299508,4.593176,,,10838.224822873,10.498688,0.4921268,6.8498033688,10.668307428,14,5,15.599,10838.224822873,4.593176,1.6329662,6.8498033688,-0.223694,0.447388,0,101.7,2.7,-2.7,0,0,1024,1024,1024,1024,0,0,0,0,100.2,0,99,3.931,3.914,3.875,3.879,0,0,0,32,10838.224822873,4.593176,6,P-GPS,
10700,2022-06-18 14:08:55,4.52537653379927,-73.7734036696007,4.593176,,,10838.224822873,10.498688,0.3131716,6.9444227944,10.7633533628,14,5,15.599,10838.224822873,4.593176,1.6329662,6.9444227944,-0.223694,0.223694,0,101.6,1.9,-3,0,0,1024,1024,1024,1024,0,0,0,0,100.2,0,99,3.931,3.914,3.875,3.879,0,0,0,32,10838.224822873,4.593176,6,P-GPS,
10800,2022-06-18 14:08:55,4.52537648995581,-73.7734035006321,4.593176,,,10838.224822873,10.498688,0.3131716,7.0077430064,10.8268704252,14,5,15.599,10838.224822873,4.593176,1.6329662,7.0077430064,-0.223694,0.223694,0,101.7,1.1,-3.2,0,0,1024,1024,1024,1024,0,0,0,0,100.2,0,99,3.931,3.914,3.875,3.879,0,0,0,32,10838.224822873,4.593176,6,P-GPS,
10900,2022-06-18 14:08:55,4.52537627643188,-73.7734035205272,4.593176,,,10838.224822873,10.498688,0,7.0146983872,10.9050856508,14,5,15.599,10838.224822873,4.593176,1.6329662,7.0146983872,0,0,0,101.7,0.4,-2.8,0,0,1024,1024,1024,1024,0,0,0,0,100.2,0,99,3.931,3.914,3.875,3.879,0,0,0,32,10838.224822873,4.593176,6,P-GPS,
11000,2022-06-18 14:08:55,4.52537624631278,-73.773403463314,4.593176,,,10838.224822873,10.498688,0,7.0372049496,10.928642082,14,5,15.599,10838.224822873,4.593176,1.6329662,7.0372049496,0,0,0,101.8,-0.4,-2.9,0,0,1024,1024,1024,1024,0,0,0,0,100.2,0,99,3.931,3.914,3.875,3.879,0,0,0,32,10838.224822873,4.593176,6,P-GPS,
11100,2022-06-18 14:08:55,4.52537614017132,-73.7734032366316,4.593176,,,10838.224822873,10.498688,0,7.1254595456,11.0197182004,14,5,15.599,10838.224822873,4.593176,1.6329662,7.1254595456,0,0,0,101.9,-1.1,-3.1,0,0,1024,1024,1024,1024,0,0,0,0,100.2,0,99,3.931,3.914,3.875,3.879,0,0,0,32,10838.224822873,4.593176,6,P-GPS,
11200,2022-06-18 14:08:56,4.52537611451974,-73.773403204849,4.593176,,,10838.224822873,10.498688,0,7.138615714,11.0345804056,14,5,15.599,10838.224822873,4.593176,1.6329662,7.138615714,0,0,0,101.9,-1.2,-2.8,0,0,1024,1024,1024,1024,0,0,0,0,100.2,0,99,3.931,3.914,3.875,3.879,0,0,0,32,10838.224822873,4.593176,6,P-GPS,
11300,2022-06-18 14:08:56,4.52537594331819,-73.7734032665568,4.593176,,,10838.224822873,10.498688,0,7.1288060024,11.1009517988,14,5,15.524,10838.224822873,4.593176,1.6329662,7.138615714,0,0,0,101.7,-1,-3,0,0,1024,1024,1024,1024,0,0,0,0,100.2,0,99,3.916,3.896,3.854,3.858,0,0,0,32,10838.224822873,4.593176,6,P-GPS,
11400,2022-06-18 14:08:56,4.52537590608284,-73.7734032737203,4.593176,,,10838.224822873,10.498688,0,7.1290028528,11.1147969436,14,5,15.524,10838.224822873,4.593176,1.6329662,7.138615714,0,0,0,101.7,-1.5,-3.3,0,0,1024,1024,1024,1024,0,0,0,0,100.2,0,99,3.916,3.896,3.854,3.858,0,0,0,32,10838.224822873,4.593176,6,P-GPS,
11500,2022-06-18 14:08:56,4.52537601285702,-73.7734034401745,4.593176,,,10838.224822873,10.498688,0,7.0618768664,11.1867785732,14,5,15.524,10838.224822873,4.593176,1.6329662,7.138615714,0,0,0,101.6,-2.4,-3.4,0,0,1024,1024,1024,1024,0,0,0,0,100.2,0,99,3.916,3.896,3.854,3.858,0,0,0,32,10838.224822873,4.593176,6,P-GPS,
11600,2022-06-18 14:08:56,4.52537599504584,-73.7734034874716,4.593176,,,10838.224822873,10.498688,0,7.0463256848,11.2051840856,14,5,15.524,10838.224822873,4.593176,1.6329662,7.138615714,0,0,0,101.7,-3,-3.2,0,0,1024,1024,1024,1024,0,0,0,0,100.2,0,99,3.916,3.896,3.854,3.858,0,0,0,32,10838.224822873,4.593176,6,P-GPS,
11700,2022-06-18 14:08:56,4.52537590758558,-73.7734035375235,4.593176,,,10838.224822873,10.498688,0,7.03494117,11.2419294936,14,5,15.524,10838.224822873,4.593176,1.6329662,7.138615714,0,0,0,101.8,-2.5,-3.1,0,0,1024,1024,1024,1024,0,0,0,0,100.2,0,99,3.916,3.896,3.854,3.858,0,0,0,32,10838.224822873,4.593176,6,P-GPS,
11800,2022-06-18 14:08:56,4.52537588307597,-73.7734035833862,4.593176,,,10838.224822873,10.498688,0,7.0204726656,11.260827132,14,5,15.524,10838.224822873,4.593176,1.6329662,7.138615714,0,0,0,101.6,-2.3,-3.6,0,0,1024,1024,1024,1024,0,0,0,0,100.2,0,99,3.916,3.896,3.854,3.858,0,0,0,32,10838.224822873,4.593176,6,P-GPS,
11900,2022-06-18 14:08:56,4.52537580508254,-73.7734036870612,4.593176,,,10838.224822873,10.498688,0,6.9895343444,11.308071228,14,5,15.524,10838.224822873,4.593176,1.6329662,7.138615714,0,0,0,101.5,-2.5,-3.8,0,0,1024,1024,1024,1024,0,0,0,0,100.2,0,99,3.916,3.896,3.854,3.858,0,0,0,32,10838.224822873,4.593176,6,P-GPS,
12000,2022-06-18 14:08:56,4.52537580142048,-73.773403755825,4.593176,,,10838.224822873,10.498688,0,6.965387362,11.3331368456,14,5,15.524,10838.224822873,4.593176,1.6329662,7.138615714,0,0,0,101.6,-3.1,-3.2,0,0,1024,1024,1024,1024,0,0,0,0,100.2,0,99,3.916,3.896,3.854,3.858,0,0,0,32,10838.224822873,4.593176,6,P-GPS,
12100,2022-06-18 14:08:56,4.52537589344958,-73.77340383064,4.593176,,,10838.224822873,10.498688,0,6.9316931352,11.3763455084,14,5,15.524,10838.224822873,4.593176,1.6329662,7.138615714,0,0,0,101.6,-2.9,-2.6,0,0,1024,1024,1024,1024,0,0,0,0,100.2,0,99,3.916,3.896,3.854,3.858,0,0,0,32,10838.224822873,4.593176,6,P-GPS,
12200,2022-06-18 14:08:57,4.52537590746201,-73.7734039075767,4.593176,,,10838.224822873,10.498688,0,6.9032810608,11.4047903912,14,5,15.568,10838.224822873,4.593176,1.6329662,7.138615714,0,0,0,101.4,-2.9,-2.9,0,0,1024,1024,1024,1024,0,0,0,0,100.2,0,99,3.923,3.906,3.867,3.872,0,0,0,32,10838.224822873,4.593176,6,P-GPS,
12300,2022-06-18 14:08:57,4.5253758164662,-73.7734041228096,4.593176,,,10838.224822873,10.498688,0,6.833825678,11.489829764,14,5,15.568,10838.224822873,4.593176,1.6329662,7.138615714,0,0,0,101.5,-3.5,-2.7,0,0,1024,1024,1024,1024,0,0,0,0,100.2,0,99,3.923,3.906,3.867,3.872,0,0,0,32,10838.224822873,4.593176,6,P-GPS,
12400,2022-06-18 14:08:57,4.52537582683032,-73.7734042257824,4.593176,,,10838.224822873,10.498688,0.223694,6.796424102,11.5274609988,14,5,15.568,10838.224822873,4.593176,1.6329662,7.138615714,0,-0.223694,0,101.5,-3.6,-3.1,0,0,1024,1024,1024,1024,0,0,0,0,100.2,0,99,3.923,3.906,3.867,3.872,0,0,0,32,10838.224822873,4.593176,6,P-GPS,
12500,2022-06-18 14:08:57,4.52537583739918,-73.77340422703,4.593176,,,10838.224822873,10.498688,0.223694,6.7951445744,11.5313651984,14,5,15.568,10838.224822873,4.593176,1.6329662,7.138615714,0,-0.223694,0,101.5,-4.1,-3,0,0,1024,1024,1024,1024,0,0,0,0,100.2,0,99,3.923,3.906,3.867,3.872,0,0,0,32,10838.224822873,4.593176,6,P-GPS,
12600,2022-06-18 14:08:57,4.52537585678635,-73.7734043154719,4.593176,,,10838.224822873,10.498688,0.223694,6.7622377492,11.5642720236,14,5,15.568,10838.224822873,4.593176,1.6329662,7.138615714,0,0,0,101.5,-4.6,-2.5,0,0,1024,1024,1024,1024,0,0,0,0,100.2,0,99,3.923,3.906,3.867,3.872,0,0,0,32,10838.224822873,4.593176,6,P-GPS,
12700,2022-06-18 14:08:57,4.52537600040396,-73.7734044256124,4.593176,,,10838.224822873,10.498688,0,6.711942472,11.630249716,14,5,15.568,10838.224822873,4.593176,1.6329662,7.138615714,0,0,0,101.7,-4.7,-2.3,0,0,1024,1024,1024,1024,0,0,0,0,100.2,0,99,3.923,3.906,3.867,3.872,0,0,0,32,10838.224822873,4.593176,6,P-GPS,
12800,2022-06-18 14:08:57,4.52537601226448,-73.7734044759049,4.593176,,,10838.224822873,10.498688,0,6.6931432588,11.6490489292,14,5,15.568,10838.224822873,4.593176,1.6329662,7.138615714,0,0,0,101.8,-4.6,-2.1,0,0,1024,1024,1024,1024,0,0,0,0,100.2,0,99,3.923,3.906,3.867,3.872,0,0,0,32,10838.224822873,4.593176,6,P-GPS,
12900,2022-06-18 14:08:57,4.52537593533041,-73.7734046724797,4.593176,,,10838.224822873,10.498688,0,6.629265304,11.7258533936,14,5,15.568,10838.224822873,4.593176,1.6329662,7.138615714,0,0,0,101.9,-4,-2.6,0,0,1024,1024,1024,1024,0,0,0,0,100.2,0,99,3.923,3.906,3.867,3.872,0,0,0,32,10838.224822873,4.593176,6,P-GPS,
13000,2022-06-18 14:08:57,4.52537591531848,-73.7734046950373,4.593176,,,10838.224822873,10.498688,0,6.6228348576,11.7368442076,14,5,15.568,10838.224822873,4.593176,1.6329662,7.138615714,0,0,0,101.9,-3,-3,0,0,1024,1024,993,1024,0,0,-5,0,100.2,0,99,3.923,3.906,3.867,3.872,0,0,0,32,10838.224822873,4.593176,6,P-GPS,
13100,2022-06-18 14:08:57,4.52537583236869,-73.7734047317726,4.593176,,,10838.224822873,10.498688,0,6.6164372196,11.7699150748,14,5,15.568,10838.224822873,4.593176,1.6329662,7.138615714,0,0,0,101.9,-2.6,-3.3,0,0,1024,1024,1024,1024,0,0,0,0,100.2,0,99,3.923,3.906,3.867,3.872,0,0,0,32,10838.224822873,4.593176,6,P-GPS,
13200,2022-06-18 14:08:58,4.52537580683016,-73.7734047539675,4.593176,,,10838.224822873,10.498688,0,6.6106301328,11.7822510332,14,5,15.524,10838.224822873,4.593176,1.6329662,7.138615714,0,0,0,101.8,-2.5,-3.6,0,0,1024,1024,1024,1024,0,0,0,0,100.2,0,99,3.914,3.895,3.855,3.86,0,0,0,32,10838.224822873,4.593176,6,P-GPS,
13300,2022-06-18 14:08:58,4.52537582957524,-73.7734047871801,4.593176,,,10838.224822873,10.498688,0,6.5970146468,11.7968835796,14,5,15.524,10838.224822873,4.593176,1.6329662,7.138615714,0,0,0,101.8,-2.9,-3.6,0,0,1024,1024,1024,1024,0,0,0,0,100.2,0,99,3.914,3.895,3.855,3.86,0,0,0,32,10838.224822873,4.593176,6,P-GPS,
13400,2022-06-18 14:08:58,4.52537582464173,-73.7734048153348,4.593176,,,10838.224822873,10.498688,0,6.587434594,11.8072838424,14,5,15.524,10838.224822873,4.593176,1.6329662,7.138615714,0,0,0,101.6,-2.8,-3.8,0,0,1024,1024,1024,1024,0,0,0,0,100.2,0,99,3.914,3.895,3.855,3.86,0,0,0,32,10838.224822873,4.593176,6,P-GPS,
13500,2022-06-18 14:08:58,4.5253757522004,-73.7734047821157,4.593176,,,10838.224822873,10.498688,0,6.60515113,11.8363520848,14,5,15.524,10838.224822873,4.593176,1.6329662,7.138615714,0,0,0,101.6,-3.4,-4.2,0,0,1024,1024,1024,1024,0,0,0,0,100.2,0,99,3.914,3.895,3.855,3.86,0,0,0,32,10838.224822873,4.593176,6,P-GPS,
13600,2022-06-18 14:08:58,4.52537576821262,-73.7734048087747,4.593176,,,10838.224822873,10.498688,0,6.5943899748,11.8476709828,14,5,15.524,10838.224822873,4.593176,1.6329662,7.138615714,0,0,0,101.6,-4.2,-3.5,0,0,1024,1024,1024,1024,0,0,0,0,100.2,0,99,3.914,3.895,3.855,3.86,0,0,0,32,10838.224822873,4.593176,6,P-GPS,
13700,2022-06-18 14:08:58,4.52537585954588,-73.7734049218293,4.593176,,,10838.224822873,10.498688,0,6.5468177948,11.900590932,14,5,15.524,10838.224822873,4.593176,1.6329662,7.138615714,0,0,0,101.7,-4.7,-2.9,0,0,1024,1024,1024,1024,0,0,0,0,100.2,0,99,3.914,3.895,3.855,3.86,0,0,0,32,10838.224822873,4.593176,6,P-GPS,
13800,2022-06-18 14:08:58,4.52537589369911,-73.7734049438662,4.593176,,,10838.224822873,10.498688,0,6.53625349,11.9154203288,14,5,15.524,10838.224822873,4.593176,1.6329662,7.138615714,0,0,0,101.7,-4.7,-2.7,0,0,1024,1024,1024,1024,0,0,0,0,100.2,0,99,3.914,3.895,3.855,3.86,0,0,0,32,10838.224822873,4.593176,6,P-GPS,
13900,2022-06-18 14:08:58,4.52537575929689,-73.7734048587923,4.593176,,,10838.224822873,10.498688,0,6.5773952236,11.9733927716,14,5,15.524,10838.224822873,4.593176,1.6329662,7.138615714,0,0,0,101.8,-4.2,-2.7,0,0,1024,1024,1024,1024,0,0,0,0,100.2,0,99,3.914,3.895,3.855,3.86,0,0,0,32,10838.224822873,4.593176,6,P-GPS,
14000,2022-06-18 14:08:58,4.52537577301352,-73.7734048533897,4.593176,,,10838.224822873,10.498688,0,6.5781826252,11.9787733492,14,5,15.524,10838.224822873,4.593176,1.6329662,7.138615714,0,0,0,101.8,-3.9,-2.9,0,0,1024,1024,1024,1024,0,0,0,0,100.2,0,99,3.914,3.895,3.855,3.86,0,0,0,32,10838.224822873,4.593176,6,P-GPS,
14100,2022-06-18 14:08:58,4.52537589348078,-73.7734049250631,4.593176,,,10838.224822873,10.498688,0,6.5429464036,12.0298888364,14,5,15.524,10838.224822873,4.593176,1.6329662,7.138615714,0,0,0,101.7,-3.7,-3,0,0,1024,1024,1024,1024,0,0,0,0,100.2,0,99,3.914,3.895,3.855,3.86,0,0,0,32,10838.224822873,4.593176,6,P-GPS,
14200,2022-06-18 14:08:59,4.52537591880859,-73.7734049215168,4.593176,,,10838.224822873,10.498688,0,6.542159002,12.039206422,14,5,15.524,10838.224822873,4.593176,1.6329662,7.138615714,0,0,0,101.8,-4,-2.9,0,0,1024,1024,1024,1024,0,0,0,0,100.2,0,99,3.914,3.895,3.855,3.86,0,0,0,32,10838.224822873,4.593176,6,P-GPS,
14300,2022-06-18 14:08:59,4.52537586568936,-73.7734048816785,4.593176,,,10838.224822873,10.498688,0,6.5605645144,12.0634190212,14,5,15.5,10838.224822873,4.593176,1.6329662,7.138615714,0,0,0,101.8,-3.8,-2.8,0,0,1024,1024,1024,1024,0,0,0,0,100.2,0,99,3.907,3.89,3.848,3.855,0,0,0,32,10838.224822873,4.593176,6,P-GPS,
14400,2022-06-18 14:08:59,4.52537587968025,-73.7734048672292,4.593176,,,10838.224822873,10.498688,0,6.5645671392,12.0707352944,14,5,15.5,10838.224822873,4.593176,1.6329662,7.138615714,0,0,0,101.8,-3.4,-2.9,0,0,1024,1024,1024,1024,0,0,0,0,100.2,0,99,3.907,3.89,3.848,3.855,0,0,0,32,10838.224822873,4.593176,6,P-GPS,
14500,2022-06-18 14:08:59,4.52537584126328,-73.7734048615495,4.593176,,,10838.224822873,10.498688,0,6.5696852496,12.0849085232,14,5,15.5,10838.224822873,4.593176,1.6329662,7.138615714,0,0,0,101.8,-3.3,-2.9,0,0,1024,1024,1024,1024,0,0,0,0,100.2,0,99,3.907,3.89,3.848,3.855,0,0,0,32,10838.224822873,4.593176,6,P-GPS,
14600,2022-06-18 14:08:59,4.52537584995732,-73.7734048482221,4.593176,,,10838.224822873,10.498688,0,6.5737206828,12.0906828016,14,5,15.5,10838.224822873,4.593176,1.6329662,7.138615714,0,0,0,101.8,-3.3,-3,0,0,1024,1024,1024,1024,0,0,0,0,100.2,0,99,3.907,3.89,3.848,3.855,0,0,0,32,10838.224822873,4.593176,6,P-GPS,
14700,2022-06-18 14:08:59,4.52537597310477,-73.7734047065512,4.593176,,,10838.224822873,10.498688,0,6.61417344,12.1590555072,14,5,15.5,10838.224822873,4.593176,1.6329662,7.138615714,0,0,0,101.8,-3.4,-3.1,0,0,1024,1024,1024,1024,0,0,0,0,100.2,0,99,3.907,3.89,3.848,3.855,0,0,0,32,10838.224822873,4.593176,6,P-GPS,
14800,2022-06-18 14:08:59,4.52537599080032,-73.7734046759453,4.593176,,,10838.224822873,10.498688,0,6.623687876,12.1719164,14,5,15.5,10838.224822873,4.593176,1.6329662,7.138615714,0,0,0,101.8,-3.4,-3.1,0,0,1024,1024,1024,1024,0,0,0,0,100.2,0,99,3.907,3.89,3.848,3.855,0,0,0,32,10838.224822873,4.593176,6,P-GPS,
14900,2022-06-18 14:08:59,4.52537595064794,-73.7734047124005,4.593176,,,10838.224822873,10.498688,0,6.6138781644,12.1916998652,14,5,15.5,10838.224822873,4.593176,1.6329662,7.138615714,0,0,0,101.8,-3.2,-3.1,0,0,1039,1024,1024,1024,2,0,0,0,100.2,0,99,3.907,3.89,3.848,3.855,0,0,0,32,10838.224822873,4.593176,6,P-GPS,
15000,2022-06-18 14:08:59,4.52537595795646,-73.7734046751808,4.593176,,,10838.224822873,10.498688,0,6.6265093984,12.2054793932,14,5,15.5,10838.224822873,4.593176,1.6329662,7.138615714,0,0,0,101.8,-2.7,-3.3,0,0,1038,1024,1024,1024,2,0,0,0,100.2,0,99,3.907,3.89,3.848,3.855,0,0,0,32,10838.224822873,4.593176,6,P-GPS,
15100,2022-06-18 14:08:59,4.52537592635966,-73.7734045451754,4.593176,,,10838.224822873,10.498688,0,6.6751642556,12.2541670588,14,5,15.5,10838.224822873,4.593176,1.6329662,7.138615714,0,0,0,101.7,-2.9,-3.3,0,0,1024,1024,1024,1024,0,0,0,0,100.2,0,99,3.907,3.89,3.848,3.855,0,0,0,32,10838.224822873,4.593176,6,P-GPS,
15200,2022-06-18 14:09:00,4.52537593342054,-73.7734045016051,4.593176,,,10838.224822873,10.498688,0,6.6900920776,12.2702103664,14,5,15.5,10838.224822873,4.593176,1.6329662,7.138615714,0,0,0,101.8,-2.5,-2.7,0,0,1024,1024,1024,1024,0,0,0,0,100.2,0,99,3.907,3.89,3.848,3.855,0,0,0,32,10838.224822873,4.593176,6,P-GPS,
15300,2022-06-18 14:09:00,4.52537591280411,-73.7734045737005,4.593176,,,10838.224822873,10.498688,0,6.6661091372,12.2974741468,14,5,15.451,10838.224822873,4.593176,1.6329662,7.138615714,0,0,0,101.7,-2.2,-2.5,0,0,1024,1024,1024,1024,0,0,0,0,100.2,0,99,3.894,3.878,3.836,3.843,0,0,0,32,10838.224822873,4.593176,6,P-GPS,
15400,2022-06-18 14:09:00,4.52537590715805,-73.7734045541308,4.593176,,,10838.224822873,10.498688,0,6.6734910272,12.3048888452,14,5,15.451,10838.224822873,4.593176,1.6329662,7.138615714,0,0,0,101.7,-2.1,-2.4,0,0,1024,1024,1024,1024,0,0,0,0,100.2,0,99,3.894,3.878,3.836,3.843,0,0,0,32,10838.224822873,4.593176,6,P-GPS,
15500,2022-06-18 14:09:00,4.52537588566502,-73.773404502974,4.593176,,,10838.224822873,10.498688,0,6.6933729176,12.3250988196,14,5,15.451,10838.224822873,4.593176,1.6329662,7.138615714,0,0,0,101.7,-2.1,-2.4,0,0,1024,1024,1024,1024,0,0,0,0,100.2,0,99,3.894,3.878,3.836,3.843,0,0,0,32,10838.224822873,4.593176,6,P-GPS,
15600,2022-06-18 14:09:00,4.52537585972026,-73.7734045029461,4.593176,,,10838.224822873,10.498688,0,6.6954398468,12.3345476388,14,5,15.451,10838.224822873,4.593176,1.6329662,7.138615714,0,0,0,101.7,-2.1,-2.5,0,0,1024,1024,1024,1024,0,0,0,0,100.2,0,99,3.894,3.878,3.836,3.843,0,0,0,32,10838.224822873,4.593176,6,P-GPS,
15700,2022-06-18 14:09:00,4.52537581946075,-73.7734044637746,4.593176,,,10838.224822873,10.498688,0,6.7125330232,12.3550200804,14,5,15.451,10838.224822873,4.593176,1.6329662,7.138615714,0,0,0,101.7,-1.9,-2.7,0,0,1024,1024,1024,1024,0,0,0,0,100.2,0,99,3.894,3.878,3.836,3.843,0,0,0,32,10838.224822873,4.593176,6,P-GPS,
15800,2022-06-18 14:09:00,4.52537577657788,-73.7734044863098,4.593176,,,10838.224822873,10.498688,0,6.708005464,12.3726709996,14,5,15.451,10838.224822873,4.593176,1.6329662,7.138615714,0,0,0,101.7,-2.5,-3.2,0,0,1024,1024,1024,1024,0,0,0,0,100.2,0,99,3.894,3.878,3.836,3.843,0,0,0,32,10838.224822873,4.593176,6,P-GPS,
15900,2022-06-18 14:09:00,4.52537577888522,-73.773404572745,4.593176,,,10838.224822873,10.498688,0,6.677165568,12.4041342552,14,5,15.451,10838.224822873,4.593176,1.6329662,7.138615714,0,0,0,101.6,-3,-3.2,0,0,1024,1024,1024,1024,0,0,0,0,100.2,0,99,3.894,3.878,3.836,3.843,0,0,0,32,10838.224822873,4.593176,6,P-GPS,
16000,2022-06-18 14:09:00,4.52537574506298,-73.7734046180375,4.593176,,,10838.224822873,10.498688,0,6.663878166,12.424705122,14,5,15.451,10838.224822873,4.593176,1.6329662,7.138615714,0,0,0,101.7,-3.3,-3.2,0,0,1024,1024,1024,1024,0,0,0,0,100.2,0,99,3.894,3.878,3.836,3.843,0,0,0,32,10838.224822873,4.593176,6,P-GPS,
16100,2022-06-18 14:09:00,4.52537581191465,-73.7734046341735,4.593176,,,10838.224822873,10.498688,0,6.6526905016,12.449803548,14,5,15.451,10838.224822873,4.593176,1.6329662,7.138615714,0,0,0,101.6,-3.5,-3.3,0,0,1024,1024,1024,1024,0,0,0,0,100.2,0,99,3.894,3.878,3.836,3.843,0,0,0,32,10838.224822873,4.593176,6,P-GPS,
16200,2022-06-18 14:09:00,4.52537580112347,-73.7734046782227,4.593176,,,10838.224822873,10.498688,0,6.63795953,12.4663061732,14,5,15.451,10838.224822873,4.593176,1.6329662,7.138615714,0,0,0,101.7,-3.6,-2.9,0,0,1024,1024,1024,1024,0,0,0,0,100.2,0,99,3.894,3.878,3.836,3.843,0,0,0,32,10838.224822873,4.593176,6,P-GPS,
16300,2022-06-18 14:09:01,4.52537588357363,-73.7734047713029,4.593176,,,10838.224822873,10.498688,0,6.5982941744,12.5115817652,14,5,15.505,10838.224822873,4.593176,1.6329662,7.138615714,0,0,0,101.6,-3.6,-3.1,0,0,1024,1024,1024,1024,0,0,0,0,100.2,0,99,3.909,3.892,3.85,3.854,0,0,0,32,10838.224822873,4.593176,6,P-GPS,
16400,2022-06-18 14:09:01,4.52537588376067,-73.7734048154422,4.593176,,,10838.224822873,10.498688,0,6.5826117592,12.5276250728,14,5,15.505,10838.224822873,4.593176,1.6329662,7.138615714,0,0,0,101.7,-3.9,-3.1,0,0,1024,1024,1024,1024,0,0,0,0,100.2,0,99,3.909,3.892,3.85,3.854,0,0,0,32,10838.224822873,4.593176,6,P-GPS,
16500,2022-06-18 14:09:01,4.52537577171012,-73.7734050102862,4.593176,,,10838.224822873,10.498688,0,6.5227036208,12.6094492224,14,5,15.505,10838.224822873,4.593176,1.6329662,7.138615714,0,0,0,101.7,-4,-3.1,0,0,1024,1024,1024,1024,0,0,0,0,100.2,0,99,3.909,3.892,3.85,3.854,0,0,0,32,10838.224822873,4.593176,6,P-GPS,
16600,2022-06-18 14:09:01,4.52537576166199,-73.7734050501685,4.593176,,,10838.224822873,10.498688,0,6.5094490272,12.6244098528,14,5,15.505,10838.224822873,4.593176,1.6329662,7.138615714,0,0,0,101.6,-3.8,-3.2,0,0,1024,1024,1024,1024,0,0,0,0,100.2,0,99,3.909,3.892,3.85,3.854,0,0,0,32,10838.224822873,4.593176,6,P-GPS,
16700,2022-06-18 14:09:01,4.52537578458307,-73.7734048976171,4.593176,,,10838.224822873,10.498688,0,6.5615487664,12.6805122168,14,5,15.505,10838.224822873,4.593176,1.6329662,7.138615714,0,0,0,101.5,-3.4,-3.9,0,0,1024,1024,1024,1024,0,0,0,0,100.2,0,99,3.909,3.892,3.85,3.854,0,0,0,32,10838.224822873,4.593176,6,P-GPS,
16800,2022-06-18 14:09:01,4.52537578795967,-73.7734049083773,4.593176,,,10838.224822873,10.498688,0,6.5574477164,12.6846460752,14,5,15.505,10838.224822873,4.593176,1.6329662,7.138615714,0,0,0,101.6,-3.8,-3.4,0,0,1024,1024,1024,1024,0,0,0,0,100.2,0,99,3.909,3.892,3.85,3.854,0,0,0,32,10838.224822873,4.593176,6,P-GPS,
16900,2022-06-18 14:09:01,4.5253756654714,-73.7734049487513,4.593176,,,10838.224822873,10.498688,0,6.5534450916,12.7316605124,14,5,15.505,10838.224822873,4.593176,1.6329662,7.138615714,0,0,0,101.6,-3.7,-2.9,0,0,1024,1024,1024,1024,0,0,0,0,100.2,0,99,3.909,3.892,3.85,3.854,0,0,0,32,10838.224822873,4.593176,6,P-GPS,
17000,2022-06-18 14:09:01,4.52537566329812,-73.7734049505637,4.593176,,,10838.224822873,10.498688,0,6.552985774,12.7327103812,14,5,15.505,10838.224822873,4.593176,1.6329662,7.138615714,0,0,0,101.6,-3.6,-2.6,0,0,1024,1024,1024,1024,0,0,0,0,100.2,0,99,3.909,3.892,3.85,3.854,0,0,0,32,10838.224822873,4.593176,6,P-GPS,
17100,2022-06-18 14:09:01,4.5253755507702,-73.7734050456473,4.593176,,,10838.224822873,10.498688,0,6.5291340672,12.7863849236,14,5,15.505,10838.224822873,4.593176,1.6329662,7.138615714,0,0,0,101.6,-3.4,-2.5,0,0,1024,1024,1024,1024,0,0,0,0,100.2,0,99,3.909,3.892,3.85,3.854,0,0,0,32,10838.224822873,4.593176,6,P-GPS,
17200,2022-06-18 14:09:02,4.52537552363448,-73.7734050519808,4.593176,,,10838.224822873,10.498688,0,6.5292653008,12.7965555276,14,5,15.505,10838.224822873,4.593176,1.6329662,7.138615714,0,0,0,101.6,-2.9,-2.9,0,0,1024,1024,1024,1024,0,0,0,0,100.2,0,99,3.909,3.892,3.85,3.854,0,0,0,32,10838.224822873,4.593176,6,P-GPS,
17300,2022-06-18 14:09:02,4.5253755347762,-73.7734050174604,4.593176,,,10838.224822873,10.498688,0,6.5404857736,12.8097445044,14,5,15.476,10838.224822873,4.593176,1.6329662,7.138615714,0,0,0,101.3,-2.2,-3.7,0,0,1024,1024,1024,1024,0,0,0,0,100.2,0,99,3.9,3.884,3.844,3.848,0,0,0,32,10838.224822873,4.593176,6,P-GPS,
17400,2022-06-18 14:09:02,4.52537552414987,-73.7734050407546,4.593176,,,10838.224822873,10.498688,0,6.5332023088,12.81906209,14,5,15.476,10838.224822873,4.593176,1.6329662,7.138615714,0,0,0,101.1,-2.8,-3.9,0,0,1024,1024,1024,1024,0,0,0,0,100.2,0,99,3.9,3.884,3.844,3.848,0,0,0,32,10838.224822873,4.593176,6,P-GPS,
17500,2022-06-18 14:09:02,4.52537557529494,-73.7734050571795,4.593176,,,10838.224822873,10.498688,0,6.5229004712,12.8386487048,14,5,15.476,10838.224822873,4.593176,1.6329662,7.138615714,0,0,0,101.1,-3.7,-3.5,0,0,1024,1024,1024,1024,0,0,0,0,100.2,0,99,3.9,3.884,3.844,3.848,0,0,0,32,10838.224822873,4.593176,6,P-GPS,
17600,2022-06-18 14:09:02,4.52537559902625,-73.7734050909129,4.593176,,,10838.224822873,10.498688,0,6.5089240928,12.853674952,14,5,15.476,10838.224822873,4.593176,1.6329662,7.138615714,0,0,0,101.1,-4.2,-2.8,0,0,1024,1024,1024,1024,0,0,0,0,100.2,0,99,3.9,3.884,3.844,3.848,0,0,0,32,10838.224822873,4.593176,6,P-GPS,
17700,2022-06-18 14:09:02,4.52537567559128,-73.7734050959978,4.593176,,,10838.224822873,10.498688,0,6.5005251424,12.8816605172,14,5,15.476,10838.224822873,4.593176,1.6329662,7.138615714,0,0,0,101.1,-4.3,-2.6,0,0,1024,1024,1024,1024,0,0,0,0,100.2,0,99,3.9,3.884,3.844,3.848,0,0,0,32,10838.224822873,4.593176,6,P-GPS,
17800,2022-06-18 14:09:02,4.52537570034929,-73.7734051146892,4.593176,,,10838.224822873,10.498688,0,6.491798108,12.8929794152,14,5,15.476,10838.224822873,4.593176,1.6329662,7.138615714,0,0,0,101.2,-4.4,-2.5,0,0,1024,1024,1024,1024,0,0,0,0,100.2,0,99,3.9,3.884,3.844,3.848,0,0,0,32,10838.224822873,4.593176,6,P-GPS,
17900,2022-06-18 14:09:02,4.52537568578577,-73.7734051966182,4.593176,,,10838.224822873,10.498688,0,6.46407501,12.92322876,14,5,15.476,10838.224822873,4.593176,1.6329662,7.138615714,0,0,0,101.2,-4.4,-2.5,0,0,1024,1024,1024,1024,0,0,0,0,100.2,0,99,3.9,3.884,3.844,3.848,0,0,0,32,10838.224822873,4.593176,6,P-GPS,
18000,2022-06-18 14:09:02,4.52537570271066,-73.773405204048,4.593176,,,10838.224822873,10.498688,0,6.45997396,12.9299872904,14,5,15.476,10838.224822873,4.593176,1.6329662,7.138615714,0,0,0,101.2,-4.1,-2.3,0,0,1024,1024,1024,1024,0,0,0,0,100.2,0,99,3.9,3.884,3.844,3.848,0,0,0,32,10838.224822873,4.593176,6,P-GPS,
18100,2022-06-18 14:09:02,4.52537579426685,-73.7734052562516,4.593176,,,10838.224822873,10.498688,0,6.4337600484,12.9684059268,14,5,15.476,10838.224822873,4.593176,1.6329662,7.138615714,0,0,0,101.3,-4.3,-1.8,0,0,1024,1024,1024,1024,0,0,0,0,100.2,0,99,3.9,3.884,3.844,3.848,0,0,0,32,10838.224822873,4.593176,6,P-GPS,
18200,2022-06-18 14:09:03,4.52537580218003,-73.7734052501274,4.593176,,,10838.224822873,10.498688,0,6.4352692348,12.9720476592,14,5,15.476,10838.224822873,4.593176,1.6329662,7.138615714,0,0,0,101.4,-4.5,-2.2,0,0,1024,1024,1024,1024,0,0,0,0,100.2,0,99,3.9,3.884,3.844,3.848,0,0,0,32,10838.224822873,4.593176,6,P-GPS,
18300,2022-06-18 14:09:03,4.52537572402731,-73.7734051660446,4.593176,,,10838.224822873,10.498688,0,6.471620942,13.0138783692,14,5,15.497,10838.224822873,4.593176,1.6329662,7.138615714,0,0,0,101.4,-4.5,-2.8,0,0,1024,1024,1024,1024,0,0,0,0,100.2,0,99,3.903,3.89,3.849,3.855,0,0,0,32,10838.224822873,4.593176,6,P-GPS,
