time(millisecond),ModifyDate,GPSLatitude,GPSLongitude,height_above_takeoff(feet),height_above_ground_at_drone_location(feet),ground_elevation_at_drone_location(feet),AbsoluteAltitude,height_sonar(feet),speed(mph),distance(feet),mileage(feet),satellites,gpslevel,voltage(v),max_altitude(feet),max_ascent(feet),max_speed(mph),max_distance(feet), xSpeed(mph), ySpeed(mph), zSpeed(mph), compass_heading(degrees), pitch(degrees), roll(degrees),isPhoto,isVideo,rc_elevator,rc_aileron,rc_throttle,rc_rudder,rc_elevator(percent),rc_aileron(percent),rc_throttle(percent),rc_rudder(percent),gimbal_heading(degrees),gimbal_pitch(degrees),battery_percent,voltageCell1,voltageCell2,voltageCell3,voltageCell4,voltageCell5,voltageCell6,current(A),battery_temperature(f),altitude(feet),ascent(feet),flycStateRaw,flycState,message
0,2022-06-18 20:00:17,0,0,0,Available with any HD 360 subscription,Available with any HD 360 subscription,10835.882418599,0.328084,0,0,0,0,0,0,10835.882418599,0,0,0,0,0,0,111.9,1.9,-0.2,0,0,1024,1024,1024,1024,0,0,0,0,116.4,0,100,4.269,4.275,4.274,4.27,0,0,0,57.11,10835.882418599,0,41,Motors_Started,Setting new Return-To-Home altitude to 150m (492 ft). Data Recorder File Index is 282. Setting new Maximum Flight Altitude to 8m (26 ft)
100,2022-06-18 20:00:17,0,0,0,,,10835.882418599,0.328084,0,0,0,0,0,0,10835.882418599,0,0,0,0,0,0,111.9,1.9,-0.2,0,0,364,386,389,1626,-100,-97,-96,91,116.4,0,100,4.269,4.275,4.274,4.27,0,0,0,57.11,10835.882418599,0,41,Motors_Started,
200,2022-06-18 20:00:17,0,0,0,,,10835.882418599,0.328084,0,0,0,0,0,0,10835.882418599,0,0,0,0,0,0,111.8,1.9,-0.2,0,0,781,591,772,1195,-37,-66,-38,26,116.2,0,100,4.269,4.275,4.274,4.27,0,0,0,57.11,10835.882418599,0,41,Motors_Started,
300,2022-06-18 20:00:17,0,0,0,,,10835.882418599,0.328084,0,0,0,0,0,0,10835.882418599,0,0,0,0,0,0,111.9,1.9,-0.2,0,0,1024,1024,1024,1024,0,0,0,0,114.6,0,100,4.269,4.275,4.274,4.27,0,0,0,57.11,10835.882418599,0,41,Motors_Started,
400,2022-06-18 20:00:17,0,0,0,,,10835.882418599,0.328084,0,0,0,0,0,0,10835.882418599,0,0,0,0,0,0,111.9,1.9,-0.2,0,0,1024,1024,1024,1024,0,0,0,0,113.6,0,100,4.269,4.275,4.274,4.27,0,0,0,57.11,10835.882418599,0,41,Motors_Started,
500,2022-06-18 20:00:17,0,0,0,,,10835.882418599,0.328084,0,0,0,0,0,0,10835.882418599,0,0,0,0,0,0,111.9,1.9,-0.2,0,0,1024,1024,1024,1024,0,0,0,0,113.6,0,100,4.269,4.275,4.274,4.27,0,0,0,57.11,10835.882418599,0,41,Motors_Started,
600,2022-06-18 20:00:18,0,0,0,,,10835.882418599,0.328084,0,0,0,0,0,0,10835.882418599,0,0,0,0,0,0,111.9,1.9,-0.2,0,0,1024,1024,1024,1024,0,0,0,0,113.2,0,100,4.269,4.275,4.274,4.27,0,0,0,57.11,10835.882418599,0,41,Motors_Started,
700,2022-06-18 20:00:18,0,0,0,,,10835.882418599,0.328084,0,0,0,0,0,0,10835.882418599,0,0,0,0,0,0,111.9,1.9,-0.2,0,0,1024,1024,1024,1024,0,0,0,0,112.9,0,100,4.269,4.275,4.274,4.27,0,0,0,57.11,10835.882418599,0,41,Motors_Started,
800,2022-06-18 20:00:18,0,0,0,,,10835.882418599,0.328084,0,0,0,0,0,0,10835.882418599,0,0,0,0,0,0,111.9,1.9,-0.2,0,0,1024,1024,1024,1024,0,0,0,0,112.8,0,100,4.269,4.275,4.274,4.27,0,0,0,57.11,10835.882418599,0,41,Motors_Started,
900,2022-06-18 20:00:18,0,0,0,,,10835.882418599,0.328084,0,0,0,0,0,0,10835.882418599,0,0,0,0,0,0,111.9,1.9,-0.2,0,0,1024,1024,1024,1024,0,0,0,0,112.7,0,100,4.269,4.275,4.274,4.27,0,0,0,57.11,10835.882418599,0,41,Motors_Started,
1000,2022-06-18 20:00:18,0,0,0,,,10835.882418599,0.328084,0,0,0,0,0,17.038,10835.882418599,0,0,0,0,0,0,111.9,1.8,-0.2,0,0,1024,1024,1040,1024,0,0,2,0,112.6,0,100,4.269,4.275,4.274,4.27,0,0,1.244,57.11,10835.882418599,0,41,Motors_Started,
1100,2022-06-18 20:00:18,0,0,0,,,10835.882418599,0.328084,0,0,0,0,0,17.038,10835.882418599,0,0,0,0,0,0,111.9,1.9,-0.2,0,0,1024,1024,1063,1024,0,0,6,0,112.5,0,100,4.269,4.275,4.274,4.27,0,0,1.244,57.11,10835.882418599,0,41,Motors_Started,
1200,2022-06-18 20:00:18,0,0,0,,,10835.882418599,0.328084,0,0,0,0,0,17.038,10835.882418599,0,0,0,0,0,0,111.9,1.9,-0.2,0,0,1024,1024,1093,1018,0,0,10,-1,112.5,0,100,4.269,4.275,4.274,4.27,0,0,1.244,57.11,10835.882418599,0,41,Motors_Started,
1300,2022-06-18 20:00:18,0,0,0,,,10835.882418599,0.328084,0,0,0,0,0,17.038,10835.882418599,0,0,0,0,0,0,111.9,1.9,-0.2,0,0,1024,1024,1102,1019,0,0,12,-1,112.4,0,100,4.269,4.275,4.274,4.27,0,0,1.244,57.11,10835.882418599,0,41,Motors_Started,
1400,2022-06-18 20:00:18,0,0,0,,,10835.882418599,0.328084,0,0,0,0,0,17.038,10835.882418599,0,0,0,0,0,0,111.9,1.9,-0.2,0,0,1024,1024,1117,1024,0,0,14,0,112.4,0,100,4.269,4.275,4.274,4.27,0,0,1.244,57.11,10835.882418599,0,41,Motors_Started,
1500,2022-06-18 20:00:18,0,0,0,,,10835.882418599,0.328084,0,0,0,0,0,17.038,10835.882418599,0,0,0,0,0,0,111.9,1.9,-0.2,0,0,1024,1024,1166,1024,0,0,22,0,112.4,0,100,4.269,4.275,4.274,4.27,0,0,1.244,57.11,10835.882418599,0,10,Assisted_Takeoff,Battery performance will significantly reduced when its temperature is below 15 degrees Celsius. Warm up the battery temperature to above 25 degree Celsius to ensure a safe flight.
1600,2022-06-18 20:00:18,0,0,0,,,10835.882418599,0.328084,0,0,0,0,0,17.038,10835.882418599,0,0,0,0,0,0,111.9,1.9,-0.2,0,0,1024,1024,1240,998,0,0,33,-4,112.3,0,100,4.269,4.275,4.274,4.27,0,0,1.244,57.11,10835.882418599,0,10,Assisted_Takeoff,
1700,2022-06-18 20:00:19,0,0,0,,,10835.882418599,0.328084,0,0,0,0,0,17.038,10835.882418599,0,0,0,0,0,0,111.9,1.9,-0.2,0,0,1024,1024,1240,1010,0,0,33,-2,112.3,0,100,4.269,4.275,4.274,4.27,0,0,1.244,57.11,10835.882418599,0,10,Assisted_Takeoff,
1800,2022-06-18 20:00:19,0,0,0,,,10835.882418599,0.328084,0,0,0,9,0,17.038,10835.882418599,0,0,0,0,0,0,111.8,1.9,-0.2,0,0,1024,1024,1236,1022,0,0,32,0,112.3,0,100,4.269,4.275,4.274,4.27,0,0,1.244,57.11,10835.882418599,0,10,Assisted_Takeoff,
1900,2022-06-18 20:00:19,0,0,0,,,10835.882418599,0.328084,0,0,0,9,0,17.038,10835.882418599,0,0,0,0,0,0,111.7,1.9,-0.1,0,0,1024,1024,1233,1024,0,0,32,0,112.3,0,100,4.269,4.275,4.274,4.27,0,0,1.244,57.11,10835.882418599,0,10,Assisted_Takeoff,
2000,2022-06-18 20:00:19,0,0,0,,,10835.882418599,0.328084,0,0,0,9,0,16.984,10835.882418599,0,0,0,0,0,0,111.6,1.9,-0.2,0,0,1024,1024,1237,1024,0,0,32,0,112.2,0,100,4.252,4.261,4.262,4.259,0,0,1.74,57.11,10835.882418599,0,10,Assisted_Takeoff,
2100,2022-06-18 20:00:19,0,0,0,,,10835.882418599,0.328084,0,0,0,9,0,16.984,10835.882418599,0,0,0,0,0,0,111.5,1.8,-0.1,0,0,1024,1024,1241,1024,0,0,33,0,112.2,0,100,4.252,4.261,4.262,4.259,0,0,1.74,57.11,10835.882418599,0,10,Assisted_Takeoff,
2200,2022-06-18 20:00:19,0,0,0,,,10835.882418599,0.328084,0,0,0,9,0,16.984,10835.882418599,0,0,0,0,0,0,111.6,1.8,0,0,0,1039,1024,1233,1024,2,0,32,0,112.2,0,100,4.252,4.261,4.262,4.259,0,0,1.74,57.11,10835.882418599,0,10,Assisted_Takeoff,
2300,2022-06-18 20:00:19,0,0,0,,,10835.882418599,0.328084,0,0,0,9,0,16.984,10835.882418599,0,0,0,0,0,0,111.6,1.9,2.5,0,0,1183,1024,1219,1024,24,0,30,0,112.2,0,100,4.252,4.261,4.262,4.259,0,0,1.74,57.11,10835.882418599,0,10,Assisted_Takeoff,
2400,2022-06-18 20:00:19,0,0,0,,,10835.882418599,0.328084,0,0,0,9,0,16.984,10835.882418599,0,0,0,0,0,-0.223694,111.6,2.1,6.4,0,0,1383,1024,1209,1023,54,0,28,0,112.1,0,100,4.252,4.261,4.262,4.259,0,0,1.74,57.11,10835.882418599,0,10,Assisted_Takeoff,
2500,2022-06-18 20:00:19,0,0,0,,,10835.882418599,0.328084,0.4921268,0,0,9,0,16.984,10835.882418599,0,0.4921268,0,-0.447388,-0.223694,-0.447388,111.6,-0.6,5.1,0,0,1438,1024,1206,1015,63,0,28,-1,112.1,0,100,4.252,4.261,4.262,4.259,0,0,1.74,57.11,10835.882418599,0,6,P-GPS,
2600,2022-06-18 20:00:20,0,0,0,,,10835.882418599,0.656168,0.7158208,0,0,9,0,16.984,10835.882418599,0,0.7158208,0,-0.671082,-0.223694,-0.671082,111.7,-5.5,1.2,0,0,1416,1024,1209,999,59,0,28,-4,112.1,0,100,4.252,4.261,4.262,4.259,0,0,1.74,57.11,10835.882418599,0,6,P-GPS,
2700,2022-06-18 20:00:20,0,0,0,,,10835.882418599,0.656168,0.894776,0,0,9,0,16.984,10835.882418599,0,0.894776,0,-0.894776,0,-0.894776,111.7,-6.4,-0.3,0,0,1416,1024,1233,935,59,0,32,-13,112.1,0,100,4.252,4.261,4.262,4.259,0,0,1.74,57.11,10835.882418599,0,6,P-GPS,
2800,2022-06-18 20:00:20,0,0,0.328084,,,10836.210502599,0.984252,0.9171454,0,0,9,2,16.984,10836.210502599,0.328084,0.9171454,0,-0.894776,0.223694,-0.894776,111.2,-6.8,-1.8,0,0,1381,1024,1216,705,54,0,29,-48,112,0,100,4.252,4.261,4.262,4.259,0,0,1.74,57.11,10836.210502599,0.328084,6,P-GPS,
2900,2022-06-18 20:00:20,0,0,0.328084,,,10836.210502599,0.984252,1.2079476,0,0,9,2,16.984,10836.210502599,0.328084,1.2079476,0,-1.11847,0.447388,-0.894776,110,-7.6,-2.9,0,0,1423,1024,1204,650,60,0,27,-57,110.7,0,100,4.252,4.261,4.262,4.259,0,0,1.74,57.11,10836.210502599,0.328084,6,P-GPS,
3000,2022-06-18 20:00:20,0,0,0.656168,,,10836.538586599,0.984252,1.2750558,0,0,9,2,16.984,10836.538586599,0.656168,1.2750558,0,-0.894776,0.894776,-1.11847,106.1,-7,-3.4,0,0,1632,995,1187,752,92,-4,25,-41,107.7,0,100,4.252,4.261,4.262,4.259,0,0,1.74,57.11,10836.538586599,0.656168,6,P-GPS,Setting new Maximum Flight Altitude to 30m (98 ft)
3100,2022-06-18 20:00:20,0,0,0.656168,,,10836.538586599,1.312336,1.4316416,0,0,9,2,16.984,10836.538586599,0.656168,1.4316416,0,-0.894776,1.11847,-1.342164,98.7,-6.7,-2,0,0,1578,917,1183,873,84,-16,24,-23,102.9,0,100,4.252,4.261,4.262,4.259,0,0,1.74,57.11,10836.538586599,0.656168,6,P-GPS,
3200,2022-06-18 20:00:20,0,0,0.984252,,,10836.866670599,1.64042,1.4987498,0,0,9,2,16.984,10836.866670599,0.984252,1.4987498,0,-0.671082,1.342164,-1.342164,92.5,-7.6,0.8,0,0,1526,911,1209,906,76,-17,28,-18,97.4,0,100,4.252,4.261,4.262,4.259,0,0,1.74,57.11,10836.866670599,0.984252,6,P-GPS,
3300,2022-06-18 20:00:20,0,0,1.312336,,,10837.194754599,1.64042,1.7000744,0,0,9,2,16.984,10837.194754599,1.312336,1.7000744,0,-0.671082,1.565858,-1.342164,88,-9.2,-1.8,0,0,1495,927,1232,941,71,-15,32,-13,97.4,0,100,4.252,4.261,4.262,4.259,0,0,1.74,57.11,10837.194754599,1.312336,6,P-GPS,
3400,2022-06-18 20:00:20,0,0,1.312336,,,10837.194754599,1.968504,1.8342908,0,0,9,2,16.984,10837.194754599,1.312336,1.8342908,0,-0.447388,1.789552,-1.342164,86.5,-8.4,-3.7,0,0,1487,934,1227,1014,70,-14,31,-2,92.8,0,100,4.252,4.261,4.262,4.259,0,0,1.74,57.11,10837.194754599,1.312336,6,P-GPS,
3500,2022-06-18 20:00:20,0,0,1.64042,,,10837.522838599,1.968504,2.0356154,0,0,7,2,16.984,10837.522838599,1.64042,2.0356154,0,-0.223694,2.013246,-1.565858,85.7,-7,-0.4,0,0,1460,933,1241,1024,66,-14,33,0,88.9,0,100,4.252,4.261,4.262,4.259,0,0,1.74,57.11,10837.522838599,1.64042,6,P-GPS,
3600,2022-06-18 20:00:21,0,0,1.968504,,,10837.850922599,2.296588,2.2816788,0,0,7,2,16.984,10837.850922599,1.968504,2.2816788,0,-0.447388,2.23694,-1.565858,85.2,-7.1,1,0,0,1470,937,1234,1024,68,-13,32,0,88.9,0,100,4.252,4.261,4.262,4.259,0,0,1.74,57.11,10837.850922599,1.968504,6,P-GPS,
3700,2022-06-18 20:00:21,0,0,1.968504,,,10837.850922599,2.624672,2.2816788,0,0,7,2,16.984,10837.850922599,1.968504,2.2816788,0,-0.447388,2.23694,-1.789552,85.2,-7.3,-1.2,0,0,1470,937,1234,1024,68,-13,32,0,88.1,0,100,4.252,4.261,4.262,4.259,0,0,1.74,57.11,10837.850922599,1.968504,6,P-GPS,
3800,2022-06-18 20:00:21,0,0,2.296588,,,10838.179006599,2.624672,2.460634,0,0,8,2,16.984,10838.179006599,2.296588,2.460634,0,-0.223694,2.460634,-1.789552,85.4,-7.4,-0.8,0,0,1400,1006,1120,1024,57,-3,15,0,87.6,0,100,4.252,4.261,4.262,4.259,0,0,1.74,57.11,10838.179006599,2.296588,6,P-GPS,
3900,2022-06-18 20:00:21,0,0,2.624672,,,10838.507090599,2.952756,2.684328,0,0,9,2,16.984,10838.507090599,2.624672,2.684328,0,-0.223694,2.684328,-2.013246,85.3,-8.5,-2.4,0,0,1400,1006,1120,1024,57,-3,15,0,87.3,0,100,4.252,4.261,4.262,4.259,0,0,1.74,57.11,10838.507090599,2.624672,6,P-GPS,
4000,2022-06-18 20:00:21,0,0,2.952756,,,10838.835174599,3.28084,2.908022,0,0,9,2,15.612,10838.835174599,2.952756,2.908022,0,0,2.908022,-2.013246,85.1,-8.9,-2.9,0,0,1367,1024,1104,1024,52,0,12,0,87,0,100,4.118,4.129,4.117,4.101,0,0,4.578,57.11,10838.835174599,2.952756,6,P-GPS,
4100,2022-06-18 20:00:21,0,0,3.28084,,,10839.163258599,3.608924,3.131716,0,0,8,2,15.612,10839.163258599,3.28084,3.131716,0,0,3.131716,-1.789552,85.1,-8.4,-2.5,0,0,1320,1024,1041,1024,45,0,3,0,86.8,0,100,4.118,4.129,4.117,4.101,0,0,4.578,57.11,10839.163258599,3.28084,6,P-GPS,
4200,2022-06-18 20:00:21,0,0,3.608924,,,10839.491342599,3.608924,3.131716,0,0,8,2,15.612,10839.491342599,3.608924,3.131716,0,0,3.35541,-1.565858,85,-8.7,-1.6,0,0,1272,1024,1024,1024,38,0,0,0,86.6,0,100,4.118,4.129,4.117,4.101,0,0,4.578,57.11,10839.491342599,3.608924,6,P-GPS,
4300,2022-06-18 20:00:21,0,0,3.608924,,,10839.491342599,3.608924,3.579104,0,0,9,2,15.612,10839.491342599,3.608924,3.579104,0,0,3.579104,-1.11847,85,-8.4,-1.1,0,0,1234,1024,1024,1024,32,0,0,0,86.5,0,100,4.118,4.129,4.117,4.101,0,0,4.578,57.11,10839.491342599,3.608924,6,P-GPS,
4400,2022-06-18 20:00:21,0,0,3.937008,,,10839.819426599,3.937008,3.579104,0,0,9,2,15.612,10839.819426599,3.937008,3.579104,0,0,3.579104,-0.447388,84.9,-7,0,0,0,1224,1024,1024,1024,30,0,0,0,86.4,0,100,4.118,4.129,4.117,4.101,0,0,4.578,57.11,10839.819426599,3.937008,6,P-GPS,
4500,2022-06-18 20:00:21,0,0,3.937008,,,10839.819426599,3.937008,3.579104,0,0,9,2,15.612,10839.819426599,3.937008,3.579104,0,0,3.579104,-0.223694,84.9,-5.1,0.4,0,0,1214,1024,1024,1024,29,0,0,0,86.3,0,100,4.118,4.129,4.117,4.101,0,0,4.578,57.11,10839.819426599,3.937008,6,P-GPS,
4600,2022-06-18 20:00:21,0,0,3.937008,,,10839.819426599,3.937008,3.579104,0,0,9,2,15.612,10839.819426599,3.937008,3.579104,0,0,3.579104,0,85,-3.6,0.5,0,0,1174,1024,1024,1024,23,0,0,0,86.3,0,100,4.118,4.129,4.117,4.101,0,0,4.578,57.11,10839.819426599,3.937008,6,P-GPS,
4700,2022-06-18 20:00:22,0,0,3.937008,,,10839.819426599,3.937008,3.802798,0,0,9,2,15.612,10839.819426599,3.937008,3.802798,0,0,3.802798,0,84.9,-2.9,-0.2,0,0,1113,1024,1024,1024,13,0,0,0,86.2,0,100,4.118,4.129,4.117,4.101,0,0,4.578,57.11,10839.819426599,3.937008,6,P-GPS,
4800,2022-06-18 20:00:22,0,0,3.937008,,,10839.819426599,3.937008,3.802798,0,0,9,2,15.612,10839.819426599,3.937008,3.802798,0,0,3.802798,-0.223694,84.9,-2.5,-0.5,0,0,1024,1024,1034,1024,0,0,2,0,86.2,0,100,4.118,4.129,4.117,4.101,0,0,4.578,57.11,10839.819426599,3.937008,6,P-GPS,
4900,2022-06-18 20:00:22,0,0,3.937008,,,10839.819426599,3.937008,3.802798,0,0,9,2,15.612,10839.819426599,3.937008,3.802798,0,0,3.802798,0,84.8,-0.6,0,0,0,1024,1024,1034,1024,0,0,2,0,86.2,0,100,4.118,4.129,4.117,4.101,0,0,4.578,57.11,10839.819426599,3.937008,6,P-GPS,
5000,2022-06-18 20:00:22,0,0,3.608924,,,10839.491342599,3.937008,3.802798,0,0,9,2,15.557,10839.819426599,3.937008,3.802798,0,0,3.802798,0.223694,84.7,3.8,-0.4,0,0,1024,1024,1048,1024,0,0,4,0,86.1,0,100,3.924,3.954,3.953,3.935,0,0,14.648,57.11,10839.491342599,3.608924,6,P-GPS,
5100,2022-06-18 20:00:22,0,0,3.608924,,,10839.491342599,3.937008,3.35541,0,0,9,2,15.557,10839.819426599,3.937008,3.802798,0,0,3.35541,0.223694,84.5,8.1,-0.4,0,0,1024,1024,1051,1024,0,0,4,0,86.1,0,100,3.924,3.954,3.953,3.935,0,0,14.648,57.11,10839.491342599,3.608924,6,P-GPS,
5200,2022-06-18 20:00:22,0,0,3.28084,,,10839.163258599,3.937008,2.684328,0,0,9,2,15.557,10839.819426599,3.937008,3.802798,0,-0.223694,2.684328,0.223694,84.4,10.9,-0.9,0,0,1024,1024,1054,1024,0,0,5,0,86.1,0,100,3.924,3.954,3.953,3.935,0,0,14.648,57.11,10839.163258599,3.28084,6,P-GPS,
5300,2022-06-18 20:00:22,0,0,3.28084,,,10839.163258599,3.608924,2.0579848,0,0,8,2,15.557,10839.819426599,3.937008,3.802798,0,-0.447388,2.013246,0.223694,84.3,10.8,-0.5,0,0,1024,1024,1102,1024,0,0,12,0,86.1,0,100,3.924,3.954,3.953,3.935,0,0,14.648,57.11,10839.163258599,3.28084,6,P-GPS,
5400,2022-06-18 20:00:22,0,0,3.28084,,,10839.163258599,0,1.6329662,0,0,8,2,15.557,10839.819426599,3.937008,3.802798,0,-0.447388,1.565858,0,84.3,8.6,-1.5,0,0,1024,1024,1119,1024,0,0,14,0,86,0,100,3.924,3.954,3.953,3.935,0,0,14.648,57.11,10839.163258599,3.28084,6,P-GPS,
5500,2022-06-18 20:00:22,0,0,3.28084,,,10839.163258599,22.309712,1.4987498,0,0,9,2,15.557,10839.819426599,3.937008,3.802798,0,-0.671082,1.342164,0,84.3,6.1,-3.3,0,0,1024,1024,1099,1024,0,0,11,0,86,0,100,3.924,3.954,3.953,3.935,0,0,14.648,57.11,10839.163258599,3.28084,6,P-GPS,
5600,2022-06-18 20:00:23,0,0,3.28084,,,10839.163258599,22.309712,1.6329662,0,0,9,2,15.557,10839.819426599,3.937008,3.802798,0,-0.447388,1.565858,-0.223694,84.4,5,-3.4,0,0,1024,1024,1095,1024,0,0,11,0,85.9,0,100,3.924,3.954,3.953,3.935,0,0,14.648,57.11,10839.163258599,3.28084,6,P-GPS,
5700,2022-06-18 20:00:23,0,0,3.28084,,,10839.163258599,22.309712,1.4092722,0,0,9,2,15.557,10839.819426599,3.937008,3.802798,0,-0.447388,1.342164,-0.223694,84.6,3.5,-3.7,0,0,1024,1024,1065,1024,0,0,6,0,85.9,0,100,3.924,3.954,3.953,3.935,0,0,14.648,57.11,10839.163258599,3.28084,6,P-GPS,
5800,2022-06-18 20:00:23,0,0,3.608924,,,10839.491342599,22.309712,1.2079476,0,0,9,2,15.557,10839.819426599,3.937008,3.802798,0,-0.447388,1.11847,-0.223694,84.7,2,-4,0,0,1024,1024,1024,1024,0,0,0,0,85.9,0,100,3.924,3.954,3.953,3.935,0,0,14.648,57.11,10839.491342599,3.608924,6,P-GPS,
5900,2022-06-18 20:00:23,0,0,3.608924,,,10839.491342599,22.309712,1.1408394,0,0,8,2,15.557,10839.819426599,3.937008,3.802798,0,-0.223694,1.11847,-0.223694,84.7,1.5,-3.5,0,0,1024,1024,1024,1024,0,0,0,0,85.9,0,100,3.924,3.954,3.953,3.935,0,0,14.648,57.11,10839.491342599,3.608924,6,P-GPS,
6000,2022-06-18 20:00:23,0,0,3.608924,,,10839.491342599,22.309712,0.9171454,0,0,8,2,15.968,10839.819426599,3.937008,3.802798,0,-0.223694,0.894776,0,84.8,1.8,-3.6,0,0,1024,1024,1024,1024,0,0,0,0,85.9,0,100,3.962,3.99,3.984,3.969,0,0,10.656,57.11,10839.491342599,3.608924,6,P-GPS,
6100,2022-06-18 20:00:23,0,0,3.608924,,,10839.491342599,22.309712,0.7158208,0,0,8,2,15.968,10839.819426599,3.937008,3.802798,0,-0.223694,0.671082,0,84.7,2.1,-3.8,0,0,1024,1024,1024,1024,0,0,0,0,85.9,0,100,3.962,3.99,3.984,3.969,0,0,10.656,57.11,10839.491342599,3.608924,6,P-GPS,
6200,2022-06-18 20:00:23,0,0,3.608924,,,10839.491342599,22.309712,0.3131716,0,0,9,2,15.968,10839.819426599,3.937008,3.802798,0,-0.223694,0.223694,0,84.7,1.2,-3.1,0,0,1024,1024,1024,1024,0,0,0,0,85.8,0,100,3.962,3.99,3.984,3.969,0,0,10.656,57.11,10839.491342599,3.608924,6,P-GPS,
6300,2022-06-18 20:00:23,0,0,3.608924,,,10839.491342599,22.309712,0.3131716,0,0,9,2,15.968,10839.819426599,3.937008,3.802798,0,-0.223694,0.223694,0,84.5,0.4,-2.1,0,0,1024,1024,1024,1024,0,0,0,0,85.8,0,100,3.962,3.99,3.984,3.969,0,0,10.656,57.11,10839.491342599,3.608924,6,P-GPS,
6400,2022-06-18 20:00:23,0,0,3.608924,,,10839.491342599,22.309712,0.223694,0,0,9,2,15.968,10839.819426599,3.937008,3.802798,0,-0.223694,0,0,84.6,0.1,-3.9,0,0,1024,1024,1024,1024,0,0,0,0,85.8,0,100,3.962,3.99,3.984,3.969,0,0,10.656,57.11,10839.491342599,3.608924,6,P-GPS,
6500,2022-06-18 20:00:23,0,0,3.608924,,,10839.491342599,22.309712,0,0,0,9,2,15.968,10839.819426599,3.937008,3.802798,0,0,0,0,84.9,-1.2,-4.2,0,0,1024,1024,1024,1024,0,0,0,0,85.8,0,100,3.962,3.99,3.984,3.969,0,0,10.656,57.11,10839.491342599,3.608924,6,P-GPS,
6600,2022-06-18 20:00:24,0,0,3.608924,,,10839.491342599,22.309712,0,0,0,9,2,15.968,10839.819426599,3.937008,3.802798,0,0,0,0.223694,85.1,-1.7,-0.6,0,0,1024,1024,1024,1024,0,0,0,0,85.8,0,100,3.962,3.99,3.984,3.969,0,0,10.656,57.11,10839.491342599,3.608924,6,P-GPS,
6700,2022-06-18 20:00:24,0,0,3.608924,,,10839.491342599,22.309712,0,0,0,9,2,15.968,10839.819426599,3.937008,3.802798,0,0,0,0,85,-1.4,1.3,0,0,1024,1024,1024,1024,0,0,0,0,85.8,0,100,3.962,3.99,3.984,3.969,0,0,10.656,57.11,10839.491342599,3.608924,6,P-GPS,
6800,2022-06-18 20:00:24,4.52525060191254,-73.773419795461,3.28084,,,10839.163258599,22.309712,0,0,0,9,2,15.968,10839.819426599,3.937008,3.802798,0,0,0,0,84.8,-1.6,0,0,0,1024,1024,1024,1024,0,0,0,0,85.8,0,100,3.962,3.99,3.984,3.969,0,0,10.656,57.11,10839.163258599,3.28084,6,P-GPS,
6900,2022-06-18 20:00:24,4.52525057965741,-73.7734198258594,3.28084,,,10839.163258599,22.309712,0,0.0137175529324,0.0137175529324,9,2,15.968,10839.819426599,3.937008,3.802798,0.0137175529324,0,0,0,84.8,-0.8,-1.1,0,0,1024,1024,1024,1024,0,0,0,0,85.7,0,100,3.962,3.99,3.984,3.969,0,0,10.656,57.11,10839.163258599,3.28084,6,P-GPS,
7000,2022-06-18 20:00:24,4.5252506314346,-73.7734198412218,3.28084,,,10839.163258599,22.309712,0,0.0198250006344,0.033417323904,9,2,15.584,10839.819426599,3.937008,3.802798,0.0198250006344,0,0,0,84.9,-1,-1.1,0,0,1024,1024,1024,1024,0,0,0,0,85.7,0,100,3.927,3.962,3.957,3.948,0,0,12.662,57.11,10839.163258599,3.28084,6,P-GPS,
7100,2022-06-18 20:00:24,4.52525069955162,-73.7734199015899,3.28084,,,10839.163258599,22.309712,0.3131716,0.052526576484,0.06657972654,9,2,15.584,10839.819426599,3.937008,3.802798,0.052526576484,0.223694,-0.223694,0,84.9,-1.3,-0.3,0,0,1024,1024,1024,1024,0,0,0,0,85.7,0,100,3.927,3.962,3.957,3.948,0,0,12.662,57.11,10839.163258599,3.28084,6,P-GPS,
7200,2022-06-18 20:00:24,4.5252508237062,-73.7734199682945,3.28084,,,10839.163258599,22.309712,0,0.1024688353,0.117965554956,9,2,15.584,10839.819426599,3.937008,3.802798,0.1024688353,0,0,0,84.9,-1.4,1,0,0,1024,1024,1024,1024,0,0,0,0,85.7,0,100,3.927,3.962,3.957,3.948,0,0,12.662,57.11,10839.163258599,3.28084,6,P-GPS,
7300,2022-06-18 20:00:24,4.52525090706322,-73.773420078203,3.28084,,,10839.163258599,22.309712,0,0.151560700388,0.168194231104,9,2,15.584,10839.819426599,3.937008,3.802798,0.151560700388,0,0,0,84.8,-1.9,0.7,0,0,1024,1024,1024,1024,0,0,0,0,85.7,0,100,3.927,3.962,3.957,3.948,0,0,12.662,57.11,10839.163258599,3.28084,6,P-GPS,
7400,2022-06-18 20:00:24,4.52525097657511,-73.7734201425101,3.608924,,,10839.491342599,22.309712,0.223694,0.186060701492,0.202694560292,9,2,15.584,10839.819426599,3.937008,3.802798,0.186060701492,-0.223694,0,0,84.8,-2.6,-1.4,0,0,1024,1024,1024,1024,0,0,0,0,85.7,0,100,3.927,3.962,3.957,3.948,0,0,12.662,57.11,10839.491342599,3.608924,6,P-GPS,
7500,2022-06-18 20:00:24,4.52525102673401,-73.7734202505483,3.28084,,,10839.163258599,22.309712,0,0.226761490196,0.24604167454,9,2,15.584,10839.819426599,3.937008,3.802798,0.226761490196,0,0,0,84.9,-3,-2.1,0,0,1024,1024,1034,1024,0,0,2,0,85.7,0,100,3.927,3.962,3.957,3.948,0,0,12.662,57.11,10839.163258599,3.28084,6,P-GPS,
7600,2022-06-18 20:00:25,4.52525114478235,-73.7734202433028,3.28084,,,10839.163258599,22.309712,0,0.25644029692,0.289192266472,9,2,15.584,10839.819426599,3.937008,3.802798,0.25644029692,0,0,0,84.9,-2.1,-0.6,0,0,1024,1024,1071,1014,0,0,7,-2,85.7,0,100,3.927,3.962,3.957,3.948,0,0,12.662,57.11,10839.163258599,3.28084,6,P-GPS,
7700,2022-06-18 20:00:25,4.52525124847719,-73.7734203086552,3.28084,,,10839.163258599,22.309712,0,0.300812673668,0.33387140176,9,2,15.584,10839.819426599,3.937008,3.802798,0.300812673668,0,0,0,84.9,-1,0,0,0,1024,1024,1098,898,0,0,11,-19,85.6,0,100,3.927,3.962,3.957,3.948,0,0,12.662,57.11,10839.163258599,3.28084,6,P-GPS,
7800,2022-06-18 20:00:25,4.52525131410399,-73.7734203275523,3.28084,,,10839.163258599,22.309712,0.223694,0.32399279252,0.35878281988,9,2,15.584,10839.819426599,3.937008,3.802798,0.32399279252,0,-0.223694,0,84.9,-1.4,-0.1,0,0,1024,1024,1169,870,0,0,22,-23,85.6,0,100,3.927,3.962,3.957,3.948,0,0,12.662,57.11,10839.163258599,3.28084,6,P-GPS,
7900,2022-06-18 20:00:25,4.52525135261812,-73.7734204435502,3.28084,,,10839.163258599,22.637796,0.3131716,0.36136156012,0.40325132524,9,2,15.584,10839.819426599,3.937008,3.802798,0.36136156012,-0.223694,-0.223694,0,84,-2.4,-0.6,0,0,1024,1024,1205,938,0,0,27,-13,85,0,100,3.927,3.962,3.957,3.948,0,0,12.662,57.11,10839.163258599,3.28084,6,P-GPS,
8000,2022-06-18 20:00:25,4.52525140660714,-73.7734205916147,3.28084,,,10839.163258599,22.637796,0.3131716,0.4123687796,0.46059384676,9,3,15.721,10839.819426599,3.937008,3.802798,0.4123687796,0,-0.223694,-0.223694,82.3,-3.3,-1.7,0,0,1024,1024,1123,1000,0,0,15,-4,84.1,0,100,3.927,3.962,3.957,3.948,0,0,12.662,57.11,10839.163258599,3.28084,6,P-GPS,
8100,2022-06-18 20:00:25,4.52525146188712,-73.7734207674108,3.28084,,,10839.163258599,22.637796,0,0.47266733796,0.52763781216,9,3,15.721,10839.819426599,3.937008,3.802798,0.47266733796,0,0,-0.447388,81.1,-3.4,-2,0,0,1024,1024,1024,988,0,0,0,-5,83.6,0,100,3.927,3.962,3.957,3.948,0,0,12.662,57.11,10839.163258599,3.28084,6,P-GPS,
8200,2022-06-18 20:00:25,4.52525146957103,-73.7734209132995,3.608924,,,10839.491342599,22.637796,0,0.51527888788,0.5807742968,9,3,15.721,10839.819426599,3.937008,3.802798,0.51527888788,0,0,-0.894776,80.8,-3.6,-1.8,0,0,1024,1024,1024,949,0,0,0,-11,83.3,0,100,3.927,3.962,3.957,3.948,0,0,12.662,57.11,10839.491342599,3.608924,6,P-GPS,
8300,2022-06-18 20:00:25,4.52525149206381,-73.7734210525989,3.608924,,,10839.491342599,22.96588,0,0.56083991296,0.63209975776,8,3,15.721,10839.819426599,3.937008,3.802798,0.56083991296,0,0,-0.671082,80.9,-5.1,-0.9,0,0,1024,1024,1034,817,0,0,2,-31,83.1,0,100,3.927,3.962,3.957,3.948,0,0,12.662,57.11,10839.491342599,3.608924,6,P-GPS,
8400,2022-06-18 20:00:25,4.52525152483431,-73.7734211649456,3.608924,,,10839.491342599,22.96588,0,0.60123689588,0.67467521844,8,3,15.721,10839.819426599,3.937008,3.802798,0.60123689588,0,0,-0.447388,80.6,-4,0,0,0,1024,1024,1127,711,0,0,16,-47,82.4,0,100,3.927,3.962,3.957,3.948,0,0,12.662,57.11,10839.491342599,3.608924,6,P-GPS,
8500,2022-06-18 20:00:25,4.52525155049157,-73.7734212261711,3.937008,,,10839.819426599,22.96588,0,0.62494752656,0.69883204336,8,3,15.721,10839.819426599,3.937008,3.802798,0.62494752656,0,0,-0.223694,78.9,-1.9,0.1,0,0,1024,1024,1111,999,0,0,13,-4,80.5,0,100,3.927,3.962,3.957,3.948,0,0,12.662,57.11,10839.819426599,3.937008,6,P-GPS,
8600,2022-06-18 20:00:25,4.52525159040463,-73.7734213324179,3.937008,,,10839.819426599,22.96588,0.3131716,0.66525264596,0.74012797644,8,3,15.721,10839.819426599,3.937008,3.802798,0.66525264596,-0.223694,-0.223694,-0.447388,74.4,-1,-0.6,0,0,1024,1024,1095,1024,0,0,11,0,78.6,0,100,3.927,3.962,3.957,3.948,0,0,12.662,57.11,10839.819426599,3.937008,6,P-GPS,
8700,2022-06-18 20:00:26,4.5252516348179,-73.7734214875437,3.937008,,,10839.819426599,22.96588,0.447388,0.72164700472,0.79882876572,9,3,15.721,10839.819426599,3.937008,3.802798,0.72164700472,0,-0.447388,-0.671082,71.9,-1.9,-0.8,0,0,1146,994,1139,1118,18,-5,17,14,76.8,0,100,3.927,3.962,3.957,3.948,0,0,12.662,57.11,10839.819426599,3.937008,6,P-GPS,
8800,2022-06-18 20:00:26,4.5252514993055,-73.7734215476917,3.937008,,,10839.819426599,23.293964,0.671082,0.71649280508,0.85289372808,9,4,15.721,10839.819426599,3.937008,3.802798,0.72164700472,0,-0.671082,-0.447388,72,-4.1,-1.2,0,0,1216,852,1156,1174,29,-26,20,23,75.7,0,100,3.927,3.962,3.957,3.948,0,0,12.662,57.11,10839.819426599,3.937008,6,P-GPS,
8900,2022-06-18 20:00:26,4.52525144510142,-73.7734216720796,4.265092,,,10840.147510599,23.293964,0.447388,0.74867456464,0.90226708924,9,4,15.721,10840.147510599,4.265092,3.802798,0.74867456464,0,-0.447388,-0.447388,72.4,-5.4,-1.3,0,0,1260,732,1125,1129,36,-44,15,16,75.6,0,100,3.927,3.962,3.957,3.948,0,0,12.662,57.11,10840.147510599,4.265092,6,P-GPS,
9000,2022-06-18 20:00:26,4.52525136680237,-73.7734217650999,4.265092,,,10840.147510599,23.293964,0.447388,0.76881892224,0.94654858672,9,4,15.694,10840.147510599,4.265092,3.802798,0.76881892224,0,-0.447388,-0.671082,73.7,-6.1,-1.9,0,0,1259,702,1132,1024,36,-49,16,0,75.9,0,100,3.92,3.955,3.949,3.932,0,0,12.648,57.11,10840.147510599,4.265092,6,P-GPS,Home Point recorded. Return-to-Home Altitude:150M
9100,2022-06-18 20:00:26,4.52525137160796,-73.7734218732373,4.593176,,,10840.475594599,23.293964,0.223694,0.80620409404,0.98591866672,9,4,15.694,10840.475594599,4.593176,3.802798,0.80620409404,0,-0.223694,-0.671082,75.5,-8.7,-6.2,0,0,1256,686,1130,1024,35,-51,16,0,75.9,0,100,3.92,3.955,3.949,3.932,0,0,12.648,57.11,10840.475594599,4.593176,6,P-GPS,
9200,2022-06-18 20:00:26,4.52525134233882,-73.7734218197033,4.593176,,,10840.475594599,23.293964,0.4921268,0.78423887024,1.00812667268,9,4,15.694,10840.475594599,4.593176,3.802798,0.80620409404,0.447388,-0.223694,-0.671082,76.6,-11.2,-11.7,0,0,1238,703,1140,1024,32,-49,18,0,75.8,0,100,3.92,3.955,3.949,3.932,0,0,12.648,57.11,10840.475594599,4.593176,6,P-GPS,
9300,2022-06-18 20:00:26,4.52525157340856,-73.7734217586971,4.593176,,,10840.475594599,23.293964,1.11847,0.79718506488,1.09530187232,9,4,15.694,10840.475594599,4.593176,3.802798,0.80620409404,1.11847,0,-0.447388,77.1,-12.5,-14.6,0,0,1219,776,1148,1024,30,-38,19,0,75.8,0,100,3.92,3.955,3.949,3.932,0,0,12.648,57.11,10840.475594599,4.593176,6,P-GPS,
9400,2022-06-18 20:00:26,4.52525228264477,-73.7734216391214,4.92126,,,10840.803678599,23.293964,1.789552,0.90867128892,1.35769689384,9,4,15.694,10840.803678599,4.92126,3.802798,0.90867128892,1.789552,0,-0.671082,77.3,-12.6,-15.9,0,0,1174,994,1195,1024,23,-5,26,0,75.6,0,100,3.92,3.955,3.949,3.932,0,0,12.648,57.11,10840.803678599,4.92126,6,P-GPS,
9500,2022-06-18 20:00:26,4.52525323093026,-73.7734214710694,4.92126,,,10840.803678599,23.293964,2.460634,1.13643048256,1.70903548776,8,4,15.694,10840.803678599,4.92126,3.802798,1.13643048256,2.460634,0.223694,-0.671082,77.1,-12.4,-15.9,0,0,1024,1024,1209,1024,0,0,28,0,75.5,0,100,3.92,3.955,3.949,3.932,0,0,12.648,57.11,10840.803678599,4.92126,6,P-GPS,
9600,2022-06-18 20:00:27,4.52525461005296,-73.7734211655008,5.249344,,,10841.131762599,23.293964,3.1540854,1.54493443264,2.22433406068,8,4,15.694,10841.131762599,5.249344,3.802798,1.54493443264,3.131716,0.447388,-1.11847,76.5,-11.8,-13.9,0,0,1024,1024,1252,1024,0,0,35,0,75.4,0,100,3.92,3.955,3.949,3.932,0,0,12.648,57.11,10841.131762599,5.249344,6,P-GPS,
9700,2022-06-18 20:00:27,4.52525619508509,-73.7734208236541,5.249344,,,10841.131762599,23.293964,3.6462122,2.07464901652,2.81584982764,8,4,15.694,10841.131762599,5.249344,3.802798,2.07464901652,3.579104,0.671082,-1.565858,75.7,-8.7,-8.7,0,0,1024,1024,1238,1024,0,0,32,0,75.3,0,100,3.92,3.955,3.949,3.932,0,0,12.648,57.11,10841.131762599,5.249344,6,P-GPS,
9800,2022-06-18 20:00:27,4.52525827067253,-73.7734205814979,5.577428,,,10841.459846599,23.622048,3.6462122,2.81250993252,3.5782153376,8,4,15.694,10841.459846599,5.577428,3.802798,2.81250993252,3.579104,0.671082,-1.789552,75.2,-4,-1.8,0,0,1024,1024,1164,1024,0,0,21,0,75.3,0,100,3.92,3.955,3.949,3.932,0,0,12.648,57.11,10841.459846599,5.577428,6,P-GPS,
9900,2022-06-18 20:00:27,4.52526027602722,-73.7734203227474,6.233596,,,10842.116014599,23.622048,3.4225182,3.5348098244,4.3159122116,8,4,15.694,10842.116014599,6.233596,3.802798,3.5348098244,3.35541,0.671082,-2.460634,75.3,0.8,5.7,0,0,1024,1024,1086,1024,0,0,9,0,75.3,0,100,3.92,3.955,3.949,3.932,0,0,12.648,57.11,10842.116014599,6.233596,6,P-GPS,
10000,2022-06-18 20:00:27,4.52526208985083,-73.7734201537322,6.56168,,,10842.444098599,23.950132,2.7290668,4.193405646,4.9805447788,8,4,15.721,10842.444098599,6.56168,3.802798,4.193405646,2.684328,0.447388,-2.013246,75.5,1.6,8,0,0,1024,1024,1042,1024,0,0,3,0,75.3,0,99,3.941,3.944,3.91,3.878,0,0,13.144,57.11,10842.444098599,6.56168,6,P-GPS,
10100,2022-06-18 20:00:27,4.52526368447938,-73.7734200256937,6.56168,,,10842.444098599,24.278216,2.460634,4.7739174756,5.5642062148,8,4,15.721,10842.444098599,6.56168,3.802798,4.7739174756,2.460634,0.223694,-1.342164,75.5,2.2,9.9,0,0,1024,1024,1050,1008,0,0,4,-2,75.3,0,99,3.941,3.944,3.91,3.878,0,0,13.144,57.11,10842.444098599,6.56168,6,P-GPS,
10200,2022-06-18 20:00:27,4.52526490961968,-73.7734200912649,6.889764,,,10842.772182599,24.278216,2.0356154,5.2212600096,6.011811216,9,4,15.721,10842.772182599,6.889764,3.802798,5.2212600096,2.013246,0.223694,-0.671082,75.6,2.5,11.3,0,0,1024,1024,1078,844,0,0,8,-27,75.3,0,99,3.941,3.944,3.91,3.878,0,0,13.144,57.11,10842.772182599,6.889764,6,P-GPS,
10300,2022-06-18 20:00:27,4.52526598701125,-73.7734201507342,6.889764,,,10842.772182599,24.6063,1.5882274,5.6147311508,6.405512016,9,4,15.721,10842.772182599,6.889764,3.802798,5.6147311508,1.565858,0.223694,-0.223694,75.8,3.7,11.4,0,0,1024,1024,1082,752,0,0,9,-41,75,0,99,3.941,3.944,3.91,3.878,0,0,13.144,57.11,10842.772182599,6.889764,6,P-GPS,
10400,2022-06-18 20:00:27,4.52526659680979,-73.7734202621607,6.56168,,,10842.444098599,24.6063,1.11847,5.8381891632,6.6316603172,9,4,15.721,10842.772182599,6.889764,3.802798,5.8381891632,1.11847,0,0,75.2,4.7,9.2,0,0,1024,1024,1067,717,0,0,7,-47,73.7,0,99,3.941,3.944,3.91,3.878,0,0,13.144,57.11,10842.444098599,6.56168,6,P-GPS,
10500,2022-06-18 20:00:27,4.52526709927759,-73.7734204322959,6.56168,,,10842.444098599,24.6063,0.894776,6.0235238148,6.825131452,9,4,15.721,10842.772182599,6.889764,3.802798,6.0235238148,0.894776,0,-0.223694,72,3.2,5.7,0,0,1024,1024,1068,655,0,0,7,-56,71.7,0,99,3.941,3.944,3.91,3.878,0,0,13.144,57.11,10842.444098599,6.56168,6,P-GPS,
10600,2022-06-18 20:00:28,4.5252672755713,-73.7734206847884,6.56168,,,10842.444098599,24.6063,0.7158208,6.0919621372,6.9372377548,8,4,15.721,10842.772182599,6.889764,3.802798,6.0919621372,0.671082,-0.223694,-0.223694,67.2,0.1,5.1,0,0,1024,1024,1061,599,0,0,6,-64,68.9,0,99,3.941,3.944,3.91,3.878,0,0,13.144,57.11,10842.444098599,6.56168,6,P-GPS,
10700,2022-06-18 20:00:28,4.52526745934772,-73.7734209783738,6.889764,,,10842.772182599,24.6063,0.671082,6.1654529532,7.0633532444,8,4,15.721,10842.772182599,6.889764,3.802798,6.1654529532,0.671082,0,-0.223694,61.7,-2.6,5,0,0,1024,1024,1061,599,0,0,6,-64,64.2,0,99,3.941,3.944,3.91,3.878,0,0,13.144,57.11,10842.772182599,6.889764,6,P-GPS,
10800,2022-06-18 20:00:28,4.52526741231663,-73.7734212202272,6.889764,,,10842.772182599,24.6063,0.447388,6.1551183072,7.1529529848,9,4,15.721,10842.772182599,6.889764,3.802798,6.1654529532,0.447388,0,-0.223694,54.8,-3.5,3.3,0,0,1024,1024,1040,533,0,0,2,-74,64.2,0,99,3.941,3.944,3.91,3.878,0,0,13.144,57.11,10842.772182599,6.889764,6,P-GPS,
10900,2022-06-18 20:00:28,4.52526742863364,-73.7734214525402,6.889764,,,10842.772182599,24.6063,0.447388,6.1687337932,7.2376642736,9,4,15.721,10842.772182599,6.889764,3.802798,6.1687337932,0.447388,0,-0.447388,46.4,-2.9,2.4,0,0,1024,1024,1038,527,0,0,2,-75,57.2,0,99,3.941,3.944,3.91,3.878,0,0,13.144,57.11,10842.772182599,6.889764,6,P-GPS,
11000,2022-06-18 20:00:28,4.52526740138652,-73.7734214514863,6.889764,,,10842.772182599,24.6063,0.447388,6.158792848,7.2476052188,9,4,15.859,10842.772182599,6.889764,3.802798,6.1687337932,0.447388,0,0,37,-1.2,2.8,0,0,1024,1024,1038,527,0,0,2,-75,48.2,0,99,3.922,3.941,3.938,3.929,0,0,12.894,57.11,10842.772182599,6.889764,6,P-GPS,
11100,2022-06-18 20:00:28,4.52526740791332,-73.7734215431547,6.889764,,,10842.772182599,24.6063,0.447388,6.164534318,7.2810369784,9,4,15.859,10842.772182599,6.889764,3.802798,6.1687337932,0.447388,0,0,27.2,-0.6,2.7,0,0,1024,1024,1059,535,0,0,5,-74,38.4,0,99,3.922,3.941,3.938,3.929,0,0,12.894,57.11,10842.772182599,6.889764,6,P-GPS,
11200,2022-06-18 20:00:28,4.52526742691726,-73.7734215347111,6.889764,,,10842.772182599,24.6063,0.223694,6.171095998,7.2886157188,8,4,15.859,10842.772182599,6.889764,3.802798,6.171095998,0.223694,0,0,17.4,-0.7,1.8,0,0,1024,1024,1069,559,0,0,7,-70,28,0,99,3.922,3.941,3.938,3.929,0,0,12.894,57.11,10842.772182599,6.889764,6,P-GPS,
11300,2022-06-18 20:00:28,4.52526744351436,-73.7734216379891,7.217848,,,10843.100266599,24.278216,0.223694,6.1810697516,7.3266734628,8,4,15.859,10843.100266599,7.217848,3.802798,6.1810697516,0.223694,0,-0.447388,8,-0.8,2.1,0,0,1024,1024,1078,553,0,0,8,-71,17.7,0,99,3.922,3.941,3.938,3.929,0,0,12.894,57.11,10843.100266599,7.217848,6,P-GPS,
11400,2022-06-18 20:00:28,4.52526757767861,-73.7734217497187,7.217848,,,10843.100266599,24.278216,0.3131716,6.234252168,7.3902889504,8,4,15.859,10843.100266599,7.217848,3.802798,6.234252168,0.223694,-0.223694,-0.447388,358.9,-0.7,2.1,0,0,1024,1024,1104,587,0,0,12,-66,358,0,99,3.922,3.941,3.938,3.929,0,0,12.894,57.11,10843.100266599,7.217848,6,P-GPS,
11600,2022-06-18 20:00:28,4.52526777284273,-73.773422091241,8.2021,,,10844.084518599,24.278216,0.4921268,6.320210176,7.533464808,7,3,15.859,10844.084518599,8.2021,3.802798,6.320210176,0.223694,-0.447388,-0.894776,341,0.9,2.1,0,0,1024,1024,1107,615,0,0,13,-62,348.6,0,99,3.922,3.941,3.938,3.929,0,0,12.894,57.11,10844.084518599,8.2021,6,P-GPS,
11700,2022-06-18 20:00:29,4.52526779081913,-73.7734223608504,8.2021,,,10844.084518599,24.278216,0.447388,6.340387342,7.6317587744,7,3,15.859,10844.084518599,8.2021,3.802798,6.340387342,0,-0.447388,-0.894776,332.5,1.2,4.1,0,0,1024,1024,1151,881,0,0,19,-22,339.5,0,99,3.922,3.941,3.938,3.929,0,0,12.894,57.11,10844.084518599,8.2021,6,P-GPS,
11800,2022-06-18 20:00:29,4.5252678665206,-73.7734226107794,8.530184,,,10844.412602599,23.950132,0.447388,6.3816603092,7.7267390924,8,3,15.859,10844.412602599,8.530184,3.802798,6.3816603092,0,-0.447388,-0.671082,324.9,0.5,5.1,0,0,1024,1024,1139,1024,0,0,17,0,331.5,0,99,3.922,3.941,3.938,3.929,0,0,12.894,57.11,10844.412602599,8.530184,6,P-GPS,
11900,2022-06-18 20:00:29,4.52526788843946,-73.7734229155967,8.858268,,,10844.740686599,23.950132,0.671082,6.4082679216,7.8378939516,8,3,15.859,10844.740686599,8.858268,3.802798,6.4082679216,0,-0.671082,-0.894776,322.1,-1.6,4.9,0,0,1024,1024,1195,994,0,0,26,-5,327.1,0,99,3.922,3.941,3.938,3.929,0,0,12.894,57.11,10844.740686599,8.858268,6,P-GPS,
12000,2022-06-18 20:00:29,4.52526793388445,-73.7734232223902,9.186352,,,10845.068770599,23.950132,0.9171454,6.4452429884,7.9507220392,8,3,15.639,10845.068770599,9.186352,3.802798,6.4452429884,0.223694,-0.894776,-0.894776,321.9,0.6,7.1,0,0,1024,1024,1236,891,0,0,32,-20,325.1,0,99,3.922,3.941,3.938,3.929,0,0,12.894,57.11,10845.068770599,9.186352,6,P-GPS,
12100,2022-06-18 20:00:29,4.52526800260641,-73.7734236346831,9.514436,,,10845.396854599,23.950132,0.9171454,6.5003939088,8.1027561648,8,3,15.639,10845.396854599,9.514436,3.802798,6.5003939088,0.223694,-0.894776,-1.11847,322,6.2,8.7,0,0,1024,1024,1265,821,0,0,37,-31,323.3,0,99,3.922,3.941,3.938,3.929,0,0,12.894,57.11,10845.396854599,9.514436,6,P-GPS,
12200,2022-06-18 20:00:29,4.5252681738031,-73.7734238994874,9.84252,,,10845.724938599,23.950132,0.447388,6.5825789508,8.2175527564,8,3,15.639,10845.724938599,9.84252,3.802798,6.5825789508,0,-0.447388,-1.565858,320.8,10.2,6.2,0,0,1024,1024,1273,821,0,0,38,-31,323.3,0,99,3.922,3.941,3.938,3.929,0,0,12.894,57.11,10845.724938599,9.84252,6,P-GPS,
12300,2022-06-18 20:00:29,4.52526816796024,-73.7734240907271,10.170604,,,10846.053022599,23.950132,0.447388,6.596620946,8.2871393728,8,3,15.639,10846.053022599,10.170604,3.802798,6.596620946,0,-0.447388,-2.460634,318.2,8.2,5.4,0,0,1024,1024,1248,843,0,0,34,-27,321.5,0,99,3.922,3.941,3.938,3.929,0,0,12.894,57.11,10846.053022599,10.170604,6,P-GPS,
12400,2022-06-18 20:00:29,4.52526806599359,-73.7734241329631,10.826772,,,10846.709190599,23.950132,0.4921268,6.56414063,8.3273952796,7,3,15.639,10846.709190599,10.826772,3.802798,6.596620946,-0.223694,-0.447388,-2.460634,314.9,3.7,7.2,0,0,1024,1024,1206,823,0,0,28,-30,319.5,0,99,3.922,3.941,3.938,3.929,0,0,12.894,57.11,10846.709190599,10.826772,6,P-GPS,
12500,2022-06-18 20:00:29,4.52526789226142,-73.7734241998036,11.154856,,,10847.037274599,23.950132,0.447388,6.5085960088,8.3952758592,7,3,15.639,10847.037274599,11.154856,3.802798,6.596620946,0,-0.447388,-2.23694,312.2,3.3,8.4,0,0,1024,1024,1207,808,0,0,28,-33,317.1,0,99,3.922,3.941,3.938,3.929,0,0,12.894,57.11,10847.037274599,11.154856,6,P-GPS,
12600,2022-06-18 20:00:30,4.52526771972615,-73.7734241769196,11.48294,,,10847.365358599,24.278216,0.223694,6.445538264,8.4587601132,8,3,15.639,10847.365358599,11.48294,3.802798,6.596620946,0,-0.223694,-2.013246,309.5,4.5,7.6,0,0,1024,1024,1219,827,0,0,30,-30,314.4,0,99,3.922,3.941,3.938,3.929,0,0,12.894,57.11,10847.365358599,11.48294,6,P-GPS,
12700,2022-06-18 20:00:30,4.52526756069882,-73.773424162718,11.48294,,,10847.365358599,24.278216,0.223694,6.3880251388,8.5170278316,8,3,15.639,10847.365358599,11.48294,3.802798,6.596620946,-0.223694,0,-1.565858,306.4,5.3,6.6,0,0,1024,1024,1227,816,0,0,31,-32,311.6,0,99,3.922,3.941,3.938,3.929,0,0,12.894,57.11,10847.365358599,11.48294,6,P-GPS,
12800,2022-06-18 20:00:30,4.52526746187507,-73.7734240353971,11.48294,,,10847.365358599,24.278216,0.671082,6.341699678,8.5757220592,9,3,15.639,10847.365358599,11.48294,3.802798,6.596620946,-0.671082,0,-1.565858,303.3,4.2,6.6,0,0,1024,1024,1237,768,0,0,32,-39,308.8,0,99,3.922,3.941,3.938,3.929,0,0,12.894,57.11,10847.365358599,11.48294,6,P-GPS,
12900,2022-06-18 20:00:30,4.52526736066727,-73.7734239098214,11.811024,,,10847.693442599,24.278216,0.671082,6.2948820912,8.6344490952,9,3,15.639,10847.693442599,11.811024,3.802798,6.596620946,-0.671082,0,-1.789552,299.9,2.3,6.7,0,0,1024,1024,1243,734,0,0,33,-44,305.4,0,99,3.922,3.941,3.938,3.929,0,0,12.894,57.11,10847.693442599,11.811024,6,P-GPS,
13000,2022-06-18 20:00:30,4.52526721459585,-73.7734235389745,11.811024,,,10847.693442599,24.278216,0.223694,6.2121721148,8.7794622232,8,3,15.447,10847.693442599,11.811024,3.802798,6.596620946,-0.223694,0,-1.11847,295.8,2.5,5.7,0,0,1024,1024,1243,744,0,0,33,-42,301.4,0,99,3.904,3.94,3.931,3.909,0,0,12.028,57.11,10847.693442599,11.811024,6,P-GPS,
13100,2022-06-18 20:00:30,4.52526713589315,-73.7734232715492,11.811024,,,10847.693442599,24.6063,0.223694,6.1634844492,8.8808729876,8,3,15.447,10847.693442599,11.811024,3.802798,6.596620946,-0.223694,0,-1.565858,290.9,3.5,4.5,0,0,1024,1024,1243,739,0,0,33,-43,297,0,99,3.904,3.94,3.931,3.909,0,0,12.028,57.11,10847.693442599,11.811024,6,P-GPS,
13200,2022-06-18 20:00:30,4.52526706966433,-73.7734228455746,11.811024,,,10847.693442599,24.6063,0.223694,6.1098099068,9.0376971396,9,3,15.447,10847.693442599,11.811024,3.802798,6.596620946,-0.223694,0,-1.342164,286.1,4.1,4.7,0,0,1024,1024,1242,735,0,0,33,-44,291.9,0,99,3.904,3.94,3.931,3.909,0,0,12.028,57.11,10847.693442599,11.811024,6,P-GPS,
13300,2022-06-18 20:00:30,4.52526703388253,-73.7734225328222,11.811024,,,10847.693442599,24.6063,0,6.0772967824,9.1521984556,9,3,15.447,10847.693442599,11.811024,3.802798,6.596620946,0,0,-1.11847,281.2,4.7,4,0,0,1024,1024,1242,738,0,0,33,-43,286.7,0,99,3.904,3.94,3.931,3.909,0,0,12.028,57.11,10847.693442599,11.811024,6,P-GPS,
13400,2022-06-18 20:00:30,4.52526722840994,-73.7734223801476,11.811024,,,10847.693442599,24.6063,0,6.1385828736,9.2423231304,9,3,15.447,10847.693442599,11.811024,3.802798,6.596620946,0,0,-1.342164,276.1,5,3.1,0,0,1024,1024,1236,746,0,0,32,-42,281.4,0,99,3.904,3.94,3.931,3.909,0,0,12.028,57.11,10847.693442599,11.811024,6,P-GPS,
13500,2022-06-18 20:00:30,4.5252673711398,-73.7734222594823,11.811024,,,10847.693442599,24.934384,0,6.1835303816,9.3104005604,9,3,15.447,10847.693442599,11.811024,3.802798,6.596620946,0,0,-0.894776,271.1,5.5,2.3,0,0,1024,1024,1224,757,0,0,30,-40,276.3,0,99,3.904,3.94,3.931,3.909,0,0,12.028,57.11,10847.693442599,11.811024,6,P-GPS,
13600,2022-06-18 20:00:31,4.52526770431455,-73.7734221604623,11.811024,,,10847.693442599,24.934384,0,6.2988190992,9.4372050264,9,3,15.447,10847.693442599,11.811024,3.802798,6.596620946,0,0,-0.671082,266.2,5.8,1.7,0,0,1024,1024,1236,737,0,0,32,-43,271.2,0,99,3.904,3.94,3.931,3.909,0,0,12.028,57.11,10847.693442599,11.811024,6,P-GPS,
13700,2022-06-18 20:00:31,4.52526792991918,-73.7734220648697,11.811024,,,10847.693442599,25.262468,0,6.3757547972,9.5265422996,9,3,15.447,10847.693442599,11.811024,3.802798,6.596620946,0,0,-0.671082,261.6,6.5,1.2,0,0,1024,1024,1199,728,0,0,27,-45,266,0,99,3.904,3.94,3.931,3.909,0,0,12.028,57.11,10847.693442599,11.811024,6,P-GPS,
13900,2022-06-18 20:00:31,4.52526830315204,-73.7734219161547,11.811024,,,10847.693442599,25.590552,0,6.5041996832,9.673064614,9,3,15.447,10847.693442599,11.811024,3.802798,6.596620946,0,0,-1.11847,251.7,6.2,0.6,0,0,1024,1024,1204,718,0,0,27,-46,260.6,0,99,3.904,3.94,3.931,3.909,0,0,12.028,57.11,10847.693442599,11.811024,6,P-GPS,
14000,2022-06-18 20:00:31,4.52526841749649,-73.7734218432089,11.811024,,,10847.693442599,25.590552,0,6.5425527028,9.7225068728,9,3,15.502,10847.693442599,11.811024,3.802798,6.596620946,0,0,-0.894776,246.7,6,0.3,0,0,1024,1024,1203,727,0,0,27,-45,255.2,0,99,3.871,3.912,3.908,3.891,0,0,12.862,57.11,10847.693442599,11.811024,6,P-GPS,
14100,2022-06-18 20:00:31,4.52526849970197,-73.7734217477969,11.811024,,,10847.693442599,25.918636,0,6.5685041472,9.768373016,9,3,15.502,10847.693442599,11.811024,3.802798,6.596620946,0,0,-0.671082,241.6,6,0.2,0,0,1024,1024,1196,735,0,0,26,-44,249.9,0,99,3.871,3.912,3.908,3.891,0,0,12.862,57.11,10847.693442599,11.811024,6,P-GPS,
14200,2022-06-18 20:00:31,4.52526864604209,-73.7734217006353,11.48294,,,10847.365358599,25.918636,0,6.619750868,9.8244425716,8,3,15.502,10847.693442599,11.811024,3.802798,6.619750868,0,0,-0.671082,236.7,5.7,-0.3,0,0,1024,1024,1193,735,0,0,26,-44,244.5,0,99,3.871,3.912,3.908,3.891,0,0,12.862,57.11,10847.365358599,11.48294,6,P-GPS,
14300,2022-06-18 20:00:31,4.52526875458277,-73.7734216431568,11.48294,,,10847.365358599,26.24672,0,6.656988402,9.8692260376,8,3,15.502,10847.693442599,11.811024,3.802798,6.656988402,0,0,-0.894776,231.9,5,-0.5,0,0,1024,1024,1192,737,0,0,25,-43,239.2,0,99,3.871,3.912,3.908,3.891,0,0,12.862,57.11,10847.365358599,11.48294,6,P-GPS,
14400,2022-06-18 20:00:31,4.52526871242072,-73.7734216896842,11.811024,,,10847.693442599,26.574804,0,6.6434385328,9.8920934924,7,3,15.502,10847.693442599,11.811024,3.802798,6.656988402,0,0,-1.11847,227.2,5.2,-0.5,0,0,1024,1024,1159,734,0,0,20,-44,234.1,0,99,3.871,3.912,3.908,3.891,0,0,12.862,57.11,10847.693442599,11.811024,6,P-GPS,
14500,2022-06-18 20:00:31,4.52526868211538,-73.7734217149877,11.811024,,,10847.693442599,26.574804,0,6.6333991624,9.90649638,7,3,15.502,10847.693442599,11.811024,3.802798,6.656988402,0,0,-0.894776,222.8,5.9,-1.1,0,0,1024,1024,1158,716,0,0,20,-47,229.2,0,99,3.871,3.912,3.908,3.891,0,0,12.862,57.11,10847.693442599,11.811024,6,P-GPS,
14600,2022-06-18 20:00:32,4.52526860085928,-73.7734218620595,11.811024,,,10847.693442599,26.902888,0,6.6097771144,9.9676512376,7,3,15.502,10847.693442599,11.811024,3.802798,6.656988402,0,0,-0.894776,218.4,6,-3.4,0,0,1024,1024,1155,699,0,0,20,-49,224.1,0,99,3.871,3.912,3.908,3.891,0,0,12.862,57.11,10847.693442599,11.811024,6,P-GPS,
14700,2022-06-18 20:00:32,4.5252685533934,-73.7734219427006,11.811024,,,10847.693442599,27.230972,0,6.5959975864,10.0017063568,7,3,15.502,10847.693442599,11.811024,3.802798,6.656988402,0,0,-0.894776,213.6,5.3,-4.3,0,0,1024,1024,1156,664,0,0,20,-55,219.1,0,99,3.871,3.912,3.908,3.891,0,0,12.862,57.11,10847.693442599,11.811024,6,P-GPS,
14800,2022-06-18 20:00:32,4.52526836242577,-73.7734217087728,11.811024,,,10847.693442599,27.230972,0.223694,6.5171590012,10.1116801136,8,3,15.502,10847.693442599,11.811024,3.802798,6.656988402,0,0.223694,-0.671082,208.5,5.3,-3.5,0,0,1024,1024,1151,661,0,0,19,-55,213.2,0,99,3.871,3.912,3.908,3.891,0,0,12.862,57.11,10847.693442599,11.811024,6,P-GPS,
14900,2022-06-18 20:00:32,4.52526820295876,-73.7734215037736,11.811024,,,10847.693442599,27.559056,0.223694,6.4517062432,10.2062667308,8,3,15.502,10847.693442599,11.811024,3.802798,6.656988402,0,0.223694,-0.671082,202.7,4.8,-2.9,0,0,1024,1024,1148,674,0,0,19,-53,207.2,0,99,3.871,3.912,3.908,3.891,0,0,12.862,57.11,10847.693442599,11.811024,6,P-GPS,
15000,2022-06-18 20:00:32,4.5252681765682,-73.7734213809332,11.811024,,,10847.693442599,27.559056,0,6.437992332,10.251968832,9,3,15.502,10847.693442599,11.811024,3.802798,6.656988402,0,0,-0.894776,196.6,4,-3.2,0,0,1024,1024,1146,674,0,0,18,-53,207.2,0,99,3.871,3.912,3.908,3.891,0,0,13.004,57.11,10847.693442599,11.811024,6,P-GPS,
15100,2022-06-18 20:00:32,4.52526812345975,-73.7734212721164,12.139108,,,10848.021526599,27.88714,0.223694,6.4152561108,10.2960305132,9,3,15.502,10848.021526599,12.139108,3.802798,6.656988402,-0.223694,0,-0.894776,190.4,4.7,-2.8,0,0,1024,1024,1144,674,0,0,18,-53,200.9,0,99,3.871,3.912,3.908,3.891,0,0,13.004,57.11,10848.021526599,12.139108,6,P-GPS,
15200,2022-06-18 20:00:32,4.52526805064551,-73.7734213052284,12.139108,,,10848.021526599,27.88714,0.223694,6.3897967924,10.3251971808,9,3,15.502,10848.021526599,12.139108,3.802798,6.656988402,-0.223694,0,-1.11847,184.2,4.7,-3,0,0,1024,1024,1131,685,0,0,16,-51,167.1,0,99,3.871,3.912,3.908,3.891,0,0,13.004,57.11,10848.021526599,12.139108,6,P-GPS,
15700,2022-06-18 20:00:33,4.52526870190749,-73.7734214564384,13.779528,,,10849.661946599,28.543308,0,6.6313322332,10.5690948264,9,3,15.502,10849.661946599,13.779528,3.802798,6.656988402,0,0,-1.789552,152.4,3.7,-7.1,0,0,1024,1024,1132,668,0,0,16,-54,160.3,0,99,3.871,3.912,3.908,3.891,0,0,13.004,57.11,10849.661946599,13.779528,6,P-GPS,
15800,2022-06-18 20:00:33,4.52526887614774,-73.7734216142797,14.107612,,,10849.990030599,28.543308,0,6.7000658312,10.6547575588,9,3,15.502,10849.990030599,14.107612,3.802798,6.7000658312,0,0,-1.565858,146.5,2.8,-7.1,0,0,1024,1024,1132,658,0,0,16,-55,153.6,0,99,3.871,3.912,3.908,3.891,0,0,13.004,57.11,10849.990030599,14.107612,6,P-GPS,
15900,2022-06-18 20:00:33,4.52526903425988,-73.7734217847263,14.435696,,,10850.318114599,28.543308,0.223694,6.7638453608,10.7394360392,9,3,15.502,10850.318114599,14.435696,3.802798,6.7638453608,0,-0.223694,-1.11847,140.4,1.5,-6.8,0,0,1024,1024,1134,661,0,0,17,-55,146.7,0,99,3.871,3.912,3.908,3.891,0,0,13.004,57.11,10850.318114599,14.435696,6,P-GPS,
16000,2022-06-18 20:00:33,4.52526906972576,-73.7734218859078,15.091864,,,10850.974282599,28.543308,0.223694,6.7807416868,10.7784452268,9,3,15.557,10850.974282599,15.091864,3.802798,6.7807416868,0,-0.223694,-1.342164,134,0.8,-6.9,0,0,1024,1024,1134,669,0,0,17,-54,139.9,0,99,3.879,3.925,3.919,3.901,0,0,13.004,57.11,10850.974282599,15.091864,6,P-GPS,
16100,2022-06-18 20:00:33,4.52526914059239,-73.7734220268394,15.419948,,,10851.302366599,28.871392,0.223694,6.812336176,10.8358599268,9,3,15.557,10851.302366599,15.419948,3.802798,6.812336176,0,-0.223694,-1.11847,127.5,0,-7.3,0,0,1024,1024,1135,674,0,0,17,-53,133,0,99,3.879,3.925,3.919,3.901,0,0,13.004,57.11,10851.302366599,15.419948,6,P-GPS,
16200,2022-06-18 20:00:33,4.52526907832395,-73.7734223402632,15.419948,,,10851.302366599,28.871392,0.223694,6.8043637348,10.952100088,9,3,15.557,10851.302366599,15.419948,3.802798,6.812336176,0,-0.223694,-0.894776,121.1,-2.2,-7.2,0,0,1024,1024,1142,684,0,0,18,-52,125.8,0,99,3.879,3.925,3.919,3.901,0,0,13.004,57.11,10851.302366599,15.419948,6,P-GPS,
16300,2022-06-18 20:00:33,4.52526910712461,-73.773422638522,15.419948,,,10851.302366599,28.871392,0.223694,6.8303479876,11.0610567844,9,3,15.557,10851.302366599,15.419948,3.802798,6.8303479876,0,-0.223694,-0.894776,114.9,-4.6,-6.5,0,0,1024,1024,1134,694,0,0,17,-50,125.8,0,99,3.879,3.925,3.919,3.901,0,0,13.004,57.11,10851.302366599,15.419948,6,P-GPS,
16400,2022-06-18 20:00:33,4.5252688957542,-73.7734231667614,15.419948,,,10851.302366599,28.871392,0.223694,6.7861878812,11.2681105968,9,3,15.557,10851.302366599,15.419948,3.802798,6.8303479876,0,-0.223694,-0.671082,108.6,-5.5,-5.4,0,0,1024,1024,1118,751,0,0,14,-41,105.9,0,99,3.879,3.925,3.919,3.901,0,0,13.004,57.11,10851.302366599,15.419948,6,P-GPS,
16600,2022-06-18 20:00:34,4.52526868883434,-73.7734238654317,15.091864,,,10850.974282599,28.871392,0,6.7629923424,11.5332024688,9,3,15.557,10851.302366599,15.419948,3.802798,6.8303479876,0,0,-0.223694,96.6,-6,-3.2,0,0,1024,1024,1088,850,0,0,10,-26,105.9,0,99,3.879,3.925,3.919,3.901,0,0,13.004,57.11,10850.974282599,15.091864,6,P-GPS,
16700,2022-06-18 20:00:34,4.52526864240089,-73.7734240944809,14.76378,,,10850.646198599,28.543308,0,6.7652233136,11.6182090332,9,3,15.557,10851.302366599,15.419948,3.802798,6.8303479876,0,0,0,91.5,-6.5,-2.6,0,0,1024,1024,1024,976,0,0,0,-7,105.9,0,99,3.879,3.925,3.919,3.901,0,0,13.004,57.11,10850.646198599,14.76378,6,P-GPS,
16900,2022-06-18 20:00:34,4.52526832436415,-73.7734242195037,14.107612,,,10849.990030599,28.543308,0,6.663221998,11.7428481448,9,3,15.557,10851.302366599,15.419948,3.802798,6.8303479876,0,0,0.671082,85.3,-6.8,-1.4,0,0,1024,1024,1024,1021,0,0,0,0,91.9,0,99,3.879,3.925,3.919,3.901,0,0,13.004,57.11,10849.990030599,14.107612,6,P-GPS,
17000,2022-06-18 20:00:34,4.52526818776049,-73.7734241672657,13.779528,,,10849.661946599,28.543308,0,6.6102692404,11.7961617948,9,3,15.557,10851.302366599,15.419948,3.802798,6.8303479876,0,0,0.671082,84.1,-5.1,-1.1,0,0,1024,1024,1031,1024,0,0,1,0,85.9,0,99,3.879,3.925,3.919,3.901,0,0,13.004,57.11,10849.661946599,13.779528,6,P-GPS,
17500,2022-06-18 20:00:34,4.52526781213383,-73.7734237771343,11.811024,,,10847.693442599,28.543308,0.223694,6.4439634608,11.993438704,9,3,15.557,10851.302366599,15.419948,3.802798,6.8303479876,0,0.223694,0,82,-7,0,0,0,1024,1024,1049,1024,0,0,4,0,85.4,0,99,3.879,3.925,3.919,3.901,0,0,13.004,57.11,10847.693442599,11.811024,6,P-GPS,
17600,2022-06-18 20:00:35,4.52526785965183,-73.7734235175306,11.811024,,,10847.693442599,28.543308,0.4921268,6.4403545368,12.0894360824,9,3,15.557,10851.302366599,15.419948,3.802798,6.8303479876,-0.223694,0.447388,-0.223694,81.9,-6.9,-2.4,0,0,1024,1024,1095,1024,0,0,11,0,85,0,99,3.879,3.925,3.919,3.901,0,0,13.004,57.11,10847.693442599,11.811024,6,P-GPS,
17700,2022-06-18 20:00:35,4.52526785920563,-73.773423255744,11.811024,,,10847.693442599,28.543308,0.671082,6.4208663472,12.1846460592,9,3,15.557,10851.302366599,15.419948,3.802798,6.8303479876,0,0.671082,-0.447388,81.9,-4.9,-2.9,0,0,1024,1024,1117,1024,0,0,14,0,85,0,99,3.879,3.925,3.919,3.901,0,0,13.004,57.11,10847.693442599,11.811024,6,P-GPS,
17900,2022-06-18 20:00:35,4.52526800415669,-73.7734226221997,11.48294,,,10847.365358599,28.871392,0.447388,6.4318899696,12.4210633896,9,3,15.639,10851.302366599,15.419948,3.802798,6.8303479876,0,0.447388,0,81.9,-4.1,-2.7,0,0,1024,1024,1045,1024,0,0,3,0,84.4,0,99,3.86,3.903,3.905,3.889,0,0,11.682,58.91,10847.365358599,11.48294,6,P-GPS,
18100,2022-06-18 20:00:35,4.52526806538944,-73.7734221676435,11.48294,,,10847.365358599,28.871392,0.223694,6.4296918068,12.5878941036,9,3,15.639,10851.302366599,15.419948,3.802798,6.8303479876,0,0.223694,-0.223694,82.1,-3.3,-2,0,0,1064,1024,1095,1024,6,0,11,0,84.3,0,99,3.86,3.903,3.905,3.889,0,0,11.682,58.91,10847.365358599,11.48294,6,P-GPS,
18200,2022-06-18 20:00:35,4.52526823652588,-73.7734220294829,11.48294,,,10847.365358599,29.199476,0.223694,6.485072386,12.6680450248,9,3,15.639,10851.302366599,15.419948,3.802798,6.8303479876,0,0.223694,0,82.2,-4.1,-3.2,0,0,1188,1024,1095,1024,25,0,11,0,84.3,0,99,3.86,3.903,3.905,3.889,0,0,11.682,58.91,10847.365358599,11.48294,6,P-GPS,
18300,2022-06-18 20:00:35,4.52526835901255,-73.773421908681,11.48294,,,10847.365358599,29.199476,0.223694,6.524114382,12.7307090688,9,3,15.639,10851.302366599,15.419948,3.802798,6.8303479876,0,0.223694,-0.223694,82.1,-3.3,-2.5,0,0,1302,1024,1061,1024,42,0,6,0,84.1,0,99,3.86,3.903,3.905,3.889,0,0,11.682,58.91,10847.365358599,11.48294,6,P-GPS,
18400,2022-06-18 20:00:35,4.52526851195764,-73.7734218591729,11.154856,,,10847.037274599,29.199476,0,6.577428032,12.789370488,9,3,15.639,10851.302366599,15.419948,3.802798,6.8303479876,0,0,-0.223694,82.1,-4.1,-0.9,0,0,1349,1024,1024,1024,49,0,0,0,84.1,0,99,3.86,3.903,3.905,3.889,0,0,11.682,58.91,10847.037274599,11.154856,6,P-GPS,
18500,2022-06-18 20:00:35,4.52526861871191,-73.7734218215468,11.48294,,,10847.365358599,29.199476,0,6.6145999492,12.8306434552,9,3,15.639,10851.302366599,15.419948,3.802798,6.8303479876,0,0,-0.447388,82.1,-8.6,-1,0,0,1337,1024,1024,1024,47,0,0,0,84,0,99,3.86,3.903,3.905,3.889,0,0,11.682,58.91,10847.365358599,11.48294,6,P-GPS,
18600,2022-06-18 20:00:36,4.52526861342273,-73.7734217190377,11.48294,,,10847.365358599,29.199476,0.447388,6.6086288204,12.8679794144,9,3,15.639,10851.302366599,15.419948,3.802798,6.8303479876,0,0.447388,-0.447388,82.3,-14.3,-1.4,0,0,1252,1024,1024,1024,35,0,0,0,83.9,0,99,3.86,3.903,3.905,3.889,0,0,11.682,58.91,10847.365358599,11.48294,6,P-GPS,
18700,2022-06-18 20:00:36,4.52526864071708,-73.7734214972488,11.48294,,,10847.365358599,29.199476,0.894776,6.6104988992,12.9492458212,9,3,15.639,10851.302366599,15.419948,3.802798,6.8303479876,0,0.894776,-0.447388,82.3,-18.5,-1.2,0,0,1041,1024,1024,1024,3,0,0,0,83.9,0,99,3.86,3.903,3.905,3.889,0,0,11.682,58.91,10847.365358599,11.48294,6,P-GPS,
18800,2022-06-18 20:00:36,4.52526871605867,-73.7734209407918,11.811024,,,10847.693442599,29.199476,1.565858,6.622047456,13.1535109196,9,3,15.639,10851.302366599,15.419948,3.802798,6.8303479876,0,1.565858,-0.671082,82.3,-19.7,-1,0,0,1202,1024,1024,1024,27,0,0,0,83.8,0,99,3.86,3.903,3.905,3.889,0,0,11.682,58.91,10847.693442599,11.811024,6,P-GPS,
19000,2022-06-18 20:00:36,4.52526896385899,-73.7734190355467,12.139108,,,10848.021526599,29.199476,2.460634,6.705052708,13.8523298396,9,3,15.502,10851.302366599,15.419948,3.802798,6.8303479876,0,2.460634,-0.671082,82.3,-10.4,-0.7,0,0,1413,1024,1024,1024,59,0,0,0,83.7,0,99,3.86,3.903,3.905,3.889,0,0,12.302,58.91,10848.021526599,12.139108,6,P-GPS,
19100,2022-06-18 20:00:36,4.52526910291834,-73.7734178389564,12.139108,,,10848.021526599,29.199476,2.460634,6.7875002172,14.2904860216,9,3,15.502,10851.302366599,15.419948,3.802798,6.8303479876,0,2.460634,-0.223694,82.2,-3,-1.4,0,0,1510,1024,984,1024,74,0,-6,0,83.7,0,99,3.86,3.903,3.905,3.889,0,0,12.302,58.91,10848.021526599,12.139108,6,P-GPS,
19400,2022-06-18 20:00:36,4.52526909537375,-73.7734142491256,11.48294,,,10847.365358599,29.199476,2.460634,7.0424214852,15.5961619164,9,3,15.502,10851.302366599,15.419948,3.802798,7.0424214852,0,2.460634,0,82.3,-22.8,-0.2,0,0,1529,1024,911,1024,77,0,-17,0,83.6,0,99,3.86,3.903,3.905,3.889,0,0,12.302,58.91,10847.365358599,11.48294,6,P-GPS,
19500,2022-06-18 20:00:37,4.52526914687167,-73.7734129155037,11.48294,,,10847.365358599,28.871392,3.35541,7.2140094172,16.0815950028,9,3,15.502,10851.302366599,15.419948,3.802798,7.2140094172,0,3.35541,-0.447388,82.3,-28.9,0,0,0,1494,1024,1024,1024,71,0,0,0,83.5,0,99,3.86,3.903,3.905,3.889,0,0,12.302,58.91,10847.365358599,11.48294,6,P-GPS,
19800,2022-06-18 20:00:37,4.52526976396564,-73.7734066540933,12.139108,,,10848.021526599,27.88714,5.59235,8.4689307172,18.3700465196,9,4,15.502,10851.302366599,15.419948,5.59235,8.4689307172,0.223694,5.59235,0,82.2,-26.2,-1,0,0,1530,1024,1024,1024,77,0,0,0,83.5,0,99,3.86,3.903,3.905,3.889,0,0,12.302,58.91,10848.021526599,12.139108,6,P-GPS,
19900,2022-06-18 20:00:37,4.52527008752932,-73.7734038437776,11.811024,,,10847.693442599,27.559056,6.2858014,9.1762470128,19.3989835604,9,4,15.502,10851.302366599,15.419948,6.2858014,9.1762470128,0.447388,6.263432,0,82.2,-24.6,-0.9,0,0,1576,1024,1024,1024,84,0,0,0,83.4,0,99,3.86,3.903,3.905,3.889,0,0,12.302,58.91,10847.693442599,11.811024,6,P-GPS,
20100,2022-06-18 20:00:37,4.52527083173148,-73.7733972649886,11.811024,,,10847.693442599,27.230972,7.4042714,11.0285108516,21.8071201204,9,4,15.502,10851.302366599,15.419948,7.4042714,11.0285108516,0.671082,7.381902,0.223694,82.4,-24.3,-1.6,0,0,1544,1024,967,1024,79,0,-9,0,83.3,0,99,3.86,3.903,3.905,3.889,0,0,12.302,58.91,10847.693442599,11.811024,6,P-GPS,
20200,2022-06-18 20:00:37,4.52527137156881,-73.7733933708411,11.811024,,,10847.693442599,27.230972,7.4042714,12.239009578,23.2371070428,9,4,15.502,10851.302366599,15.419948,7.4042714,12.239009578,0.671082,8.052984,0,82.4,-24.3,-1.5,0,0,1544,1024,967,1024,79,0,-9,0,83.3,0,99,3.86,3.903,3.905,3.889,0,0,12.302,58.91,10847.693442599,11.811024,6,P-GPS,
20300,2022-06-18 20:00:38,4.52527190408465,-73.7733893257131,11.811024,,,10847.693442599,26.902888,8.7464354,13.5358928216,24.7211294,9,4,15.502,10851.302366599,15.419948,8.7464354,13.5358928216,0.671082,8.724066,-0.223694,82.4,-24.7,-1.3,0,0,1469,1024,963,1024,67,0,-9,0,83.2,0,99,3.86,3.903,3.905,3.889,0,0,12.302,58.91,10847.693442599,11.811024,6,P-GPS,
20600,2022-06-18 20:00:38,4.52527421582538,-73.7733760004937,12.795276,,,10848.677694599,26.574804,8.7464354,18.1094493984,29.6405193212,9,4,15.502,10851.302366599,15.419948,8.7464354,18.1094493984,0.894776,10.737312,-0.671082,82.4,-24.9,-1.2,0,0,1454,1024,965,1024,65,0,-9,0,83.2,0,99,3.86,3.903,3.905,3.889,0,0,12.302,58.91,10848.677694599,12.795276,6,P-GPS,
20700,2022-06-18 20:00:38,4.52527502277474,-73.7733711566155,12.795276,,,10848.677694599,26.24672,11.2294388,19.8076121824,31.4267398508,9,4,15.502,10851.302366599,15.419948,11.2294388,19.8076121824,0.894776,11.1847,-0.223694,82.5,-25.3,-1.9,0,0,1454,1024,965,1024,65,0,-9,0,83.2,0,99,3.86,3.903,3.905,3.889,0,0,12.302,58.91,10848.677694599,12.795276,6,P-GPS,
20800,2022-06-18 20:00:38,4.52527605261087,-73.7733662177141,13.12336,,,10849.005778599,25.918636,11.9005208,21.5861555464,33.261812088,9,4,15.502,10851.302366599,15.419948,11.9005208,21.5861555464,1.11847,11.855782,-0.671082,82.6,-25.5,-1.9,0,0,1445,1024,970,1024,64,0,-8,0,83.1,0,99,3.86,3.903,3.905,3.889,0,0,12.302,58.91,10849.005778599,13.12336,6,P-GPS,
