time(millisecond),datetime(utc),latitude,longitude,height_above_takeoff(feet),height_above_ground_at_drone_location(feet),ground_elevation_at_drone_location(feet),altitude_above_seaLevel(feet),height_sonar(feet),speed(mph),distance(feet),mileage(feet),satellites,gpslevel,voltage(v),max_altitude(feet),max_ascent(feet),max_speed(mph),max_distance(feet), xSpeed(mph), ySpeed(mph), zSpeed(mph), compass_heading(degrees), pitch(degrees), roll(degrees),isPhoto,isVideo,rc_elevator,rc_aileron,rc_throttle,rc_rudder,rc_elevator(percent),rc_aileron(percent),rc_throttle(percent),rc_rudder(percent),gimbal_heading(degrees),gimbal_pitch(degrees),battery_percent,voltageCell1,voltageCell2,voltageCell3,voltageCell4,voltageCell5,voltageCell6,current(A),battery_temperature(f),altitude(feet),ascent(feet),flycStateRaw,flycState,message
0,2022-06-18 13:16:43,4.52534336436953,-73.7734255062265,0,Available with any HD 360 subscription,Available with any HD 360 subscription,10834.583218754,0.328084,0,0,0,9,4,0,10834.583218754,0,0,0,0,0,0,73.9, -5.6, -4.1,0,0,1024,1024,1024,1024,0,0,0,0,72.7,0,96,4.028,4.021,4.007,3.984,0,0,0,32,10834.583218754,0,41,Motors_Started,
100,2022-06-18 13:16:43,4.52534341762843,-73.7734254753705,0,,,10834.583218754,0.328084,0,0.0224395020304,0.0224395020304,9,4,0,10834.583218754,0,0,0.0224395020304,0,0,0,73.5, -5.7, -3.9,0,0,1024,1024,1024,1024,0,0,0,0,73,0,96,4.028,4.021,4.007,3.984,0,0,0,32,10834.583218754,0,41,Motors_Started,
200,2022-06-18 13:16:43,4.52534326169841,-73.7734253916549,0,,,10834.583218754,0.328084,0,0.056032810192,0.086966210132,9,4,0,10834.583218754,0,0,0.056032810192,0,0,0,71.5, -6.2, -2.3,0,0,428,783,364,1670,-90,-37,-100,98,72.5,0,96,4.028,4.021,4.007,3.984,0,0,0,32,10834.583218754,0,41,Motors_Started,
300,2022-06-18 13:16:44,4.52534325118149,-73.7734253525381,0,,,10834.583218754,0.328084,0,0.069498361804,0.101701774908,9,4,0,10834.583218754,0,0,0.069498361804,0,0,0,69.4, -6.1, -0.8,0,0,1000,1024,544,1553,-4,0,-73,80,70.8,0,96,4.028,4.021,4.007,3.984,0,0,0,32,10834.583218754,0,41,Motors_Started,
400,2022-06-18 13:16:44,4.52534297624682,-73.7734256242951,0,,,10834.583218754,0.328084,0,0.147974414184,0.242526582564,9,4,0,10834.583218754,0,0,0.147974414184,0,0,0,70, -6.8, -0.2,0,0,1024,1024,749,1421,0,0,-42,60,70,0,96,4.028,4.021,4.007,3.984,0,0,0,32,10834.583218754,0,41,Motors_Started,
500,2022-06-18 13:16:44,4.52534290858202,-73.7734256504109,0,,,10834.583218754,0.328084,0,0.17436680348,0.268978355064,9,4,0,10834.583218754,0,0,0.17436680348,0,0,0,69.7, -6.7, 0,0,0,1024,1024,1024,1220,0,0,0,30,69.9,0,96,4.028,4.021,4.007,3.984,0,0,0,32,10834.583218754,0,41,Motors_Started,
600,2022-06-18 13:16:44,4.52534315764394,-73.7734255653467,0,,,10834.583218754,0.328084,0,0.078428808284,0.36497048412,9,4,0,10834.583218754,0,0,0.17436680348,0,0,0,69.5, -7.2, 0,0,0,1024,1024,1024,1024,0,0,0,0,69.8,0,96,4.028,4.021,4.007,3.984,0,0,0,32,10834.583218754,0,41,Motors_Started,
700,2022-06-18 13:16:44,4.52534317731585,-73.7734256020982,0,,,10834.583218754,0.328084,0,0.076638453896,0.38014436912,9,4,0,10834.583218754,0,0,0.17436680348,0,0,0,70.6, -7.7, -0.9,0,0,1024,1024,1024,1024,0,0,0,0,69.9,0,96,4.028,4.021,4.007,3.984,0,0,0,32,10834.583218754,0,41,Motors_Started,
800,2022-06-18 13:16:44,4.52534292211032,-73.7734255434225,0,,,10834.583218754,0.328084,0,0.16192421778,0.47566930656,9,4,0,10834.583218754,0,0,0.17436680348,0,0,0,71.8, -7.5, -1.8,0,0,1024,1024,1024,1024,0,0,0,0,70.4,0,96,4.028,4.021,4.007,3.984,0,0,0,32,10834.583218754,0,41,Motors_Started,
900,2022-06-18 13:16:44,4.52534291598811,-73.7734255779977,0,,,10834.583218754,0.328084,0,0.165661422624,0.48844161668,9,4,0,10834.583218754,0,0,0.17436680348,0,0,0,72, -7.6, -1.3,0,0,1024,1024,1024,1024,0,0,0,0,71,0,96,4.028,4.021,4.007,3.984,0,0,0,32,10834.583218754,0,41,Motors_Started,
1000,2022-06-18 13:16:44,4.52534303797786,-73.7734256963572,0,,,10834.583218754,0.328084,0,0.137706369236,0.55036091,9,4,0,10834.583218754,0,0,0.17436680348,0,0,0,69.7, -7.9, -0.1,0,0,1024,1024,1024,1024,0,0,0,0,70.8,0,96,4.028,4.021,4.007,3.984,0,0,0,32,10834.583218754,0,41,Motors_Started,
1100,2022-06-18 13:16:44,4.52534304305865,-73.7734257566315,0,,,10834.583218754,0.328084,0,0.148450792152,0.57236222304,9,4,0,10834.583218754,0,0,0.17436680348,0,0,0,69.7, -8, -0.1,0,0,1024,1024,1024,1024,0,0,0,0,70.4,0,96,4.028,4.021,4.007,3.984,0,0,0,32,10834.583218754,0,41,Motors_Started,
1200,2022-06-18 13:16:44,4.52534319265558,-73.7734257103857,0,,,10834.583218754,0.328084,0,0.097153546416,0.62947508576,9,4,0,10834.583218754,0,0,0.17436680348,0,0,0,69.1, -7.2, -0.8,0,0,1024,1024,1024,1024,0,0,0,0,69.9,0,96,4.028,4.021,4.007,3.984,0,0,0,32,10834.583218754,0,6,P-GPS,
1300,2022-06-18 13:16:45,4.52534319145093,-73.7734257938522,0,,,10834.583218754,0.328084,0,0.122164373988,0.65983597912,9,4,0,10834.583218754,0,0,0.17436680348,0,0,-0.223694,69.4, -6.5, -0.9,0,0,1024,1024,1024,1024,0,0,0,0,69.6,0,96,4.028,4.021,4.007,3.984,0,0,0,32,10834.583218754,0,6,P-GPS,
1400,2022-06-18 13:16:45,4.52534327740583,-73.7734260962386,0,,,10834.583218754,0.328084,0,0.21692750038,0.77420278068,9,4,0,10834.583218754,0,0,0.21692750038,0,0,0,69.3, -5.1, -1.3,0,0,1024,1024,1024,1024,0,0,0,0,69.5,0,96,4.028,4.021,4.007,3.984,0,0,0,32,10834.583218754,0,6,P-GPS,
1500,2022-06-18 13:16:45,4.52534326410449,-73.773426207397,0,,,10834.583218754,0.328084,0,0.25763452268,0.81492128592,9,4,0,10834.583218754,0,0,0.25763452268,0,0,0,68.7, -4.4, -0.9,0,0,1024,1024,1024,1024,0,0,0,0,69.3,0,96,4.028,4.021,4.007,3.984,0,0,0,32,10834.583218754,0,6,P-GPS,
1600,2022-06-18 13:16:45,4.52534315472518,-73.7734262190506,0,,,10834.583218754,0.328084,0,0.270310376104,0.8550525208,9,4,0,10834.583218754,0,0,0.270310376104,0,0,0,67.4, -4.7, 0.1,0,0,1024,1024,1024,1024,0,0,0,0,68.7,0,96,4.028,4.021,4.007,3.984,0,0,0,32,10834.583218754,0,6,P-GPS,
1700,2022-06-18 13:16:45,4.52534311235832,-73.7734263277203,0,,,10834.583218754,0.328084,0,0.312614511316,0.89749346704,9,4,0,10834.583218754,0,0,0.312614511316,0,0,0,66.4, -4.8, 1,0,0,1024,1024,1024,1024,0,0,0,0,67.9,0,96,4.028,4.021,4.007,3.984,0,0,0,32,10834.583218754,0,6,P-GPS,
1800,2022-06-18 13:16:45,4.52534291513658,-73.773426433825,0,,,10834.583218754,0.328084,0,0.37508531384,0.97914373212,9,4,16.04,10834.583218754,0,0,0.37508531384,0,0,0,66.5, -4.5, 1.6,0,0,1024,1024,1024,1024,0,0,0,0,67.4,0,96,4.028,4.021,4.007,3.984,0,0,0,32,10834.583218754,0,6,P-GPS,
1900,2022-06-18 13:16:45,4.5253428282703,-73.773426546201,0,,,10834.583218754,0.328084,0,0.42583006612,1.03086617472,9,4,16.04,10834.583218754,0,0,0.42583006612,0,0,0,66.5, -5, 2,0,0,1024,1024,1024,1024,0,0,0,0,67.3,0,96,4.028,4.021,4.007,3.984,0,0,0,32,10834.583218754,0,6,P-GPS,"Home Point recorded. Return-to-Home Altitude:90M"
2000,2022-06-18 13:16:45,4.52534269840249,-73.773426339275,0,,,10834.583218754,0.328084,0,0.38838255836,1.1197999046,9,4,16.04,10834.583218754,0,0,0.42583006612,0,0,0,66.3, -5.1, 2.3,0,0,1024,1024,1024,1024,0,0,0,0,67.2,0,96,4.028,4.021,4.007,3.984,0,0,0,32,10834.583218754,0,6,P-GPS,
2100,2022-06-18 13:16:45,4.52534262338782,-73.7734264303592,0,,,10834.583218754,0.328084,0,0.431348439,1.16277234692,9,4,16.04,10834.583218754,0,0,0.431348439,0,0,0,66.4, -4.9, 2.7,0,0,1024,1024,1024,1024,0,0,0,0,67.1,0,96,4.028,4.021,4.007,3.984,0,0,0,32,10834.583218754,0,6,P-GPS,
2200,2022-06-18 13:16:45,4.52534278439809,-73.7734265736717,0,,,10834.583218754,0.328084,0,0.44216208764,1.241305814,9,4,16.04,10834.583218754,0,0,0.44216208764,0,0,0,66.3, -4.7, 2.3,0,0,1024,1024,1024,1024,0,0,0,0,67.1,0,96,4.028,4.021,4.007,3.984,0,0,0,32,10834.583218754,0,6,P-GPS,
2300,2022-06-18 13:16:45,4.52534274555526,-73.7734266766124,0,,,10834.583218754,0.328084,0,0.48185040912,1.28134190452,9,4,16.04,10834.583218754,0,0,0.48185040912,0,0,0,66.5, -4.8, 2.3,0,0,1024,1024,1024,1024,0,0,0,0,67,0,96,4.028,4.021,4.007,3.984,0,0,0,32,10834.583218754,0,6,P-GPS,
2400,2022-06-18 13:16:46,4.52534291136695,-73.7734266535984,0,,,10834.583218754,0.328084,0,0.4488517204,1.34241146028,9,4,16.04,10834.583218754,0,0,0.48185040912,0,0,0,66.3, -4.6, 2.4,0,0,1024,1024,1024,1024,0,0,0,0,67,0,96,4.028,4.021,4.007,3.984,0,0,0,32,10834.583218754,0,6,P-GPS,
2500,2022-06-18 13:16:46,4.52534288521593,-73.7734267414455,0,,,10834.583218754,0.328084,0,0.48208006792,1.37575791804,9,4,16.04,10834.583218754,0,0,0.48208006792,0,0,0,66.1, -4.3, 2.6,0,0,1024,1024,1024,1024,0,0,0,0,67,0,96,4.028,4.021,4.007,3.984,0,0,0,32,10834.583218754,0,6,P-GPS,
2600,2022-06-18 13:16:46,4.52534280568024,-73.7734266953971,0,,,10834.583218754,0.328084,0,0.47814305992,1.40926185612,9,4,16.04,10834.583218754,0,0,0.48208006792,0,0,0,66, -4.2, 2.8,0,0,1024,1024,1024,1024,0,0,0,0,67,0,96,4.028,4.021,4.007,3.984,0,0,0,32,10834.583218754,0,6,P-GPS,
2700,2022-06-18 13:16:46,4.52534277415676,-73.773426773038,0,,,10834.583218754,0.328084,0,0.50859253596,1.43975398308,9,4,16.04,10834.583218754,0,0,0.50859253596,0,0,0,66, -4, 2.7,0,0,1024,1024,1024,1024,0,0,0,0,67,0,96,4.028,4.021,4.007,3.984,0,0,0,32,10834.583218754,0,6,P-GPS,
2800,2022-06-18 13:16:46,4.52534267307187,-73.773426610609,0,,,10834.583218754,0.328084,0,0.47429791544,1.5093996546,9,4,16.592,10834.583218754,0,0,0.50859253596,0,0,0,65.9, -3.6, 2.6,0,0,1024,1024,1024,1024,0,0,0,0,67,0,96,4.146,4.153,4.148,4.145,0,0,0,32,10834.583218754,0,6,P-GPS,
2900,2022-06-18 13:16:46,4.52534263867086,-73.7734266836652,0,,,10834.583218754,0.328084,0,0.50348754892,1.53878613848,9,4,16.592,10834.583218754,0,0,0.50859253596,0,0,0,65.7, -3.2, 2.4,0,0,1024,1024,1024,1024,0,0,0,0,67,0,96,4.146,4.153,4.148,4.145,0,0,0,32,10834.583218754,0,6,P-GPS,
3000,2022-06-18 13:16:46,4.5253427230278,-73.7734267386722,0,,,10834.583218754,0.328084,0,0.50565290332,1.57549545724,9,4,16.592,10834.583218754,0,0,0.50859253596,0,0,0,65.7, -3, 2.1,0,0,1024,1024,1024,1024,0,0,0,0,67,0,96,4.146,4.153,4.148,4.145,0,0,0,32,10834.583218754,0,6,P-GPS,
3100,2022-06-18 13:16:46,4.5253427110879,-73.773426806444,0,,,10834.583218754,0.328084,0,0.52957350776,1.6005249856,9,4,16.592,10834.583218754,0,0,0.52957350776,0,0,0,65.7, -2.7, 1.6,0,0,1024,1024,1024,1024,0,0,0,0,66.9,0,96,4.146,4.153,4.148,4.145,0,0,0,32,10834.583218754,0,6,P-GPS,
3200,2022-06-18 13:16:46,4.52534263082867,-73.7734266796744,0,,,10834.583218754,0.328084,0,0.50376970116,1.65514440992,9,4,16.592,10834.583218754,0,0,0.52957350776,0,0,0,64.7, -2.2, 1.1,0,0,1024,1024,1024,1024,0,0,0,0,66.9,0,96,4.146,4.153,4.148,4.145,0,0,0,32,10834.583218754,0,6,P-GPS,
3300,2022-06-18 13:16:46,4.52534260232401,-73.7734267135646,0,,,10834.583218754,0.328084,0,0.51974083028,1.67127301936,9,4,16.592,10834.583218754,0,0,0.52957350776,0,0,0,62, -0.9, 0,0,0,1024,1024,1024,1024,0,0,0,0,66.7,0,96,4.146,4.153,4.148,4.145,0,0,0,32,10834.583218754,0,6,P-GPS,
3400,2022-06-18 13:16:47,4.52534263857399,-73.7734265299629,0,,,10834.583218754,0.328084,0,0.4569061826,1.73934716852,9,4,16.592,10834.583218754,0,0,0.52957350776,0,0,0.223694,59.1, 0.3, -0.9,0,0,1024,1024,1024,1024,0,0,0,0,66.3,0,96,4.146,4.153,4.148,4.145,0,0,0,32,10834.583218754,0,6,P-GPS,
3500,2022-06-18 13:16:47,4.52534258938977,-73.773426503583,0,,,10834.583218754,0.328084,0,0.45993111708,1.75969821904,9,4,16.592,10834.583218754,0,0,0.52957350776,0,0,0.223694,57.5, 1.2, -1.4,0,0,1024,1024,1024,1024,0,0,0,0,65.7,0,96,4.146,4.153,4.148,4.145,0,0,0,32,10834.583218754,0,6,P-GPS,
3600,2022-06-18 13:16:47,4.52534256691422,-73.7734265230839,0,,,10834.583218754,0.328084,0,0.4705708812,1.7705381144,9,4,16.592,10834.583218754,0,0,0.52957350776,0,0,0.223694,58.2, 1.4, -2,0,0,1024,1024,1024,1024,0,0,0,0,65.1,0,96,4.146,4.153,4.148,4.145,0,0,0,32,10834.583218754,0,6,P-GPS,
3700,2022-06-18 13:16:47,4.52534253857281,-73.7734265141768,0,,,10834.583218754,0.328084,0,0.4745242934,1.78137472892,9,4,16.592,10834.583218754,0,0,0.52957350776,0,0,0.223694,60, 0.6, -3.2,0,0,1024,1024,1024,1024,0,0,0,0,64.8,0,96,4.146,4.153,4.148,4.145,0,0,0,32,10834.583218754,0,6,P-GPS,
3800,2022-06-18 13:16:47,4.52534257546715,-73.7734264782102,0,,,10834.583218754,0.328084,0,0.45587599884,1.80014441456,9,4,16.63,10834.583218754,0,0,0.52957350776,0,0,0.223694,61, 0.4, -4.8,0,0,1024,1024,1024,1024,0,0,0,0,64.6,0,96,4.155,4.162,4.159,4.154,0,0,0,32,10834.583218754,0,6,P-GPS,
3900,2022-06-18 13:16:47,4.52534261637517,-73.7734264505279,-0.328084,,,10834.255134754,0.328084,0,0.43867783556,1.81814966448,9,4,16.63,10834.583218754,0,0,0.52957350776,0,0,0.447388,61.3, -0.2, -5.3,0,0,1024,1024,1024,1024,0,0,0,0,64.5,0,96,4.155,4.162,4.159,4.154,0,0,0,32,10834.255134754,-0.328084,6,P-GPS,
4000,2022-06-18 13:16:47,4.52534280561662,-73.773426596633,-0.328084,,,10834.255134754,0.328084,0,0.44592193028,1.90527565152,9,4,16.63,10834.583218754,0,0,0.52957350776,0,0,0.223694,61.7, -0.2, -5.5,0,0,1024,1024,1024,1024,0,0,0,0,64.4,0,96,4.155,4.162,4.159,4.154,0,0,0,32,10834.255134754,-0.328084,6,P-GPS,
4100,2022-06-18 13:16:47,4.52534289030375,-73.7734265566251,-0.328084,,,10834.255134754,0.328084,0,0.41937009216,1.93942919592,9,4,16.63,10834.583218754,0,0,0.52957350776,0,0,0.223694,63, 2.3, -5,0,0,1024,1024,1024,1024,0,0,0,0,64.4,0,96,4.155,4.162,4.159,4.154,0,0,0,32,10834.255134754,-0.328084,6,P-GPS,
4200,2022-06-18 13:16:47,4.52534313577851,-73.7734266546774,-0.328084,,,10834.255134754,0.328084,0,0.4259514572,2.03583011764,9,4,16.63,10834.583218754,0,0,0.52957350776,0,0,0.223694,65, 4.8, -3.4,0,0,1024,1024,1024,1024,0,0,0,0,64.4,0,96,4.155,4.162,4.159,4.154,0,0,0,32,10834.255134754,-0.328084,6,P-GPS,
4300,2022-06-18 13:16:48,4.52534323723907,-73.773426618656,-0.328084,,,10834.255134754,0.328084,0,0.40725395004,2.0750984916,9,4,16.63,10834.583218754,0,0,0.52957350776,0,0,0.223694,67, 3.9, -2.8,0,0,1024,1024,1024,1024,0,0,0,0,64.5,0,96,4.155,4.162,4.159,4.154,0,0,0,32,10834.255134754,-0.328084,6,P-GPS,
4400,2022-06-18 13:16:48,4.52534326277841,-73.7734266584201,-0.328084,,,10834.255134754,0.328084,0,0.4207021132,2.09230321656,9,4,16.63,10834.583218754,0,0,0.52957350776,0,0,0,68.3, 1.9, -2.6,0,0,1024,1024,1024,1024,0,0,0,0,64.6,0,96,4.155,4.162,4.159,4.154,0,0,0,32,10834.255134754,-0.328084,6,P-GPS,
4500,2022-06-18 13:16:48,4.5253433549588,-73.7734266383878,-0.656168,,,10833.927050754,0.328084,0,0.4117946326,2.12671266648,9,4,16.63,10834.583218754,0,0,0.52957350776,0,0,0,68.2, 1.4, -1.8,0,0,1024,1024,1024,1024,0,0,0,0,64.7,0,96,4.155,4.162,4.159,4.154,0,0,0,32,10833.927050754,-0.656168,6,P-GPS,
4600,2022-06-18 13:16:48,4.52534347542602,-73.7734267155434,-0.656168,,,10833.927050754,0.328084,0,0.44170605088,2.17886161828,9,4,16.63,10834.583218754,0,0,0.52957350776,0,0,0,69.1, 1.3, -1.3,0,0,1024,1024,1024,1024,0,0,0,0,64.9,0,96,4.155,4.162,4.159,4.154,0,0,0,32,10833.927050754,-0.656168,6,P-GPS,
4700,2022-06-18 13:16:48,4.5253435453444,-73.7734267540052,-0.656168,,,10833.927050754,0.328084,0,0.45860893856,2.20795282656,9,4,16.63,10834.583218754,0,0,0.52957350776,0,0,0,70.3, 1.5, -1.1,0,0,1024,1024,1024,1024,0,0,0,0,65.1,0,96,4.155,4.162,4.159,4.154,0,0,0,32,10833.927050754,-0.656168,6,P-GPS,
4800,2022-06-18 13:16:48,4.52534349689014,-73.7734266030944,-0.656168,,,10833.927050754,0.328084,0,0.40186352992,2.26562015124,9,4,16.553,10834.583218754,0,0,0.52957350776,0,0,0,70.7, 1.4, -1,0,0,1024,1024,1024,1024,0,0,0,0,65.4,0,96,4.136,4.144,4.139,4.134,0,0,0,32,10833.927050754,-0.656168,6,P-GPS,
4900,2022-06-18 13:16:48,4.52534356815657,-73.7734266148144,-0.656168,,,10833.927050754,0.328084,0,0.41000329396,2.29196857728,9,4,16.553,10834.583218754,0,0,0.52957350776,0,0,0,71.2, 0.4, -1.8,0,0,1024,1024,1024,1024,0,0,0,0,65.7,0,95,4.136,4.144,4.139,4.134,0,0,0,32,10833.927050754,-0.656168,6,P-GPS,
5000,2022-06-18 13:16:48,4.5253435721558,-73.7734268027505,-0.328084,,,10834.255134754,0.328084,0,0.47761484468,2.36033800204,9,4,16.553,10834.583218754,0,0,0.52957350776,0,0,0,72.1, -0.2, -2.5,0,0,1024,1024,1024,1024,0,0,0,0,66,0,95,4.136,4.144,4.139,4.134,0,0,0,32,10834.255134754,-0.328084,6,P-GPS,
5100,2022-06-18 13:16:48,4.52534364234871,-73.7734268316374,-0.328084,,,10834.255134754,0.328084,0,0.49262140684,2.38801844912,9,4,16.553,10834.583218754,0,0,0.52957350776,0,0,0,72.5, -0.3, -2.6,0,0,1024,1024,1024,1024,0,0,0,0,66.4,0,95,4.136,4.144,4.139,4.134,0,0,0,32,10834.255134754,-0.328084,6,P-GPS,
5200,2022-06-18 13:16:48,4.5253435578885,-73.7734268896099,-0.328084,,,10834.255134754,0.328084,0,0.50808400576,2.42535768916,9,4,16.553,10834.583218754,0,0,0.52957350776,0,0,0,71.5, -0.3, -2.2,0,0,1024,1024,1024,1024,0,0,0,0,66.7,0,95,4.136,4.144,4.139,4.134,0,0,0,32,10834.255134754,-0.328084,6,P-GPS,
5300,2022-06-18 13:16:49,4.52534362820128,-73.77342691815,-0.328084,,,10834.255134754,0.328084,0,0.52247705084,2.45303157456,9,4,16.553,10834.583218754,0,0,0.52957350776,0,0,0,71.3, -0.3, -2.2,0,0,1024,1024,1024,1024,0,0,0,0,66.9,0,95,4.136,4.144,4.139,4.134,0,0,0,32,10834.255134754,-0.328084,6,P-GPS,
5400,2022-06-18 13:16:49,4.52534369914234,-73.7734270364536,-0.328084,,,10834.255134754,0.328084,0,0.56980644868,2.50324483076,9,4,16.553,10834.583218754,0,0,0.56980644868,0,0,0,71, -0.6, -2.4,0,0,1024,1024,1024,1024,0,0,0,0,67.1,0,95,4.136,4.144,4.139,4.134,0,0,0,32,10834.255134754,-0.328084,6,P-GPS,
5500,2022-06-18 13:16:49,4.52534376769979,-73.7734270661898,-0.328084,,,10834.255134754,0.328084,0,0.58614831272,2.5304954878,9,4,16.553,10834.583218754,0,0,0.58614831272,0,0,0,70.9, -0.8, -2.2,0,0,1024,1024,1024,1024,0,0,0,0,67.2,0,95,4.136,4.144,4.139,4.134,0,0,0,32,10834.255134754,-0.328084,6,P-GPS,
5600,2022-06-18 13:16:49,4.52534363419932,-73.7734271202616,-0.328084,,,10834.255134754,0.328084,0,0.5952428012,2.58302501704,9,4,16.553,10834.583218754,0,0,0.5952428012,0,0,0,70.6, -1.3, -1.8,0,0,1024,1024,1024,1024,0,0,0,0,67.3,0,95,4.136,4.144,4.139,4.134,0,0,0,32,10834.255134754,-0.328084,6,P-GPS,
5700,2022-06-18 13:16:49,4.5253436636164,-73.7734271419088,-0.328084,,,10834.255134754,0.328084,0,0.60485238156,2.59633538492,9,4,16.553,10834.583218754,0,0,0.60485238156,0,0,0,69.9, -1.5, -1.6,0,0,1024,1024,1024,1024,0,0,0,0,67.4,0,95,4.136,4.144,4.139,4.134,0,0,0,32,10834.255134754,-0.328084,6,P-GPS,
5800,2022-06-18 13:16:49,4.52534379752143,-73.7734272147482,-0.328084,,,10834.255134754,0.328084,0,0.6411909654,2.65191281452,9,4,16.553,10834.583218754,0,0,0.6411909654,0,0,0,69.5, -1.3, -1.1,0,0,1024,1024,1024,1024,0,0,0,0,67.5,0,95,4.136,4.144,4.139,4.134,0,0,0,32,10834.255134754,-0.328084,6,P-GPS,
5900,2022-06-18 13:16:49,4.52534379204837,-73.7734272601448,-0.328084,,,10834.255134754,0.328084,0,0.65672902364,2.66854339248,9,4,16.611,10834.583218754,0,0,0.65672902364,0,0,0,69.2, -1, -0.5,0,0,1024,1024,1024,1024,0,0,0,0,67.5,0,95,4.15,4.158,4.154,4.149,0,0,0,32,10834.255134754,-0.328084,6,P-GPS,
6000,2022-06-18 13:16:49,4.52534376407246,-73.7734272268591,-0.328084,,,10834.255134754,0.328084,0,0.64258204156,2.68437672632,9,4,16.611,10834.583218754,0,0,0.65672902364,0,0,0,68.9, -1, -0.5,0,0,1024,1024,1024,1024,0,0,0,0,67.5,0,95,4.15,4.158,4.154,4.149,0,0,0,32,10834.255134754,-0.328084,6,P-GPS,
6100,2022-06-18 13:16:49,4.52534375901308,-73.773427281631,-0.328084,,,10834.255134754,0.328084,0,0.66159450936,2.70438328864,9,4,16.611,10834.583218754,0,0,0.66159450936,0,0,0,68.9, -1.1, -0.8,0,0,1024,1024,1024,1024,0,0,0,0,67.5,0,95,4.15,4.158,4.154,4.149,0,0,0,32,10834.255134754,-0.328084,6,P-GPS,
6200,2022-06-18 13:16:49,4.52534382236881,-73.7734272543921,-0.328084,,,10834.255134754,0.328084,0,0.65742128088,2.72953420808,9,4,16.611,10834.583218754,0,0,0.66159450936,0,0,0,69.1, -1.1, -0.9,0,0,1024,1024,1024,1024,0,0,0,0,67.5,0,95,4.15,4.158,4.154,4.149,0,0,0,32,10834.255134754,-0.328084,6,P-GPS,
6300,2022-06-18 13:16:49,4.52534382248334,-73.7734272974321,-0.328084,,,10834.255134754,0.328084,0,0.67258204252,2.74518709572,9,4,16.611,10834.583218754,0,0,0.67258204252,0,0,0,69.3, -1.3, -0.7,0,0,1024,1024,1024,1024,0,0,0,0,67.6,0,95,4.15,4.158,4.154,4.149,0,0,0,32,10834.255134754,-0.328084,6,P-GPS,
6400,2022-06-18 13:16:50,4.52534399174948,-73.7734273631198,-0.328084,,,10834.255134754,0.328084,0,0.71311025904,2.81140428944,9,4,16.611,10834.583218754,0,0,0.71311025904,0,0,0,69.5, -1.4, -0.8,0,0,1024,1024,1024,1024,0,0,0,0,67.6,0,95,4.15,4.158,4.154,4.149,0,0,0,32,10834.255134754,-0.328084,6,P-GPS,
6500,2022-06-18 13:16:50,4.52534402964616,-73.7734273980922,-0.328084,,,10834.255134754,0.328084,0,0.72964897348,2.83019366012,9,4,16.611,10834.583218754,0,0,0.72964897348,0,0,0,69.3, -1.3, -1.2,0,0,1024,1024,1024,1024,0,0,0,0,67.6,0,95,4.15,4.158,4.154,4.149,0,0,0,32,10834.255134754,-0.328084,6,P-GPS,
6600,2022-06-18 13:16:50,4.52534403344846,-73.7734274209172,-0.328084,,,10834.255134754,0.328084,0,0.737942937,2.83860901472,9,4,16.611,10834.583218754,0,0,0.737942937,0,0,0,69.1, -1.2, -1,0,0,1024,1024,1024,1024,0,0,0,0,67.7,0,95,4.15,4.158,4.154,4.149,0,0,0,32,10834.255134754,-0.328084,6,P-GPS,
6700,2022-06-18 13:16:50,4.5253440737437,-73.7734274422165,-0.328084,,,10834.255134754,0.328084,0,0.75020015524,2.85522646932,9,4,16.611,10834.583218754,0,0,0.75020015524,0,0,0,68.8, -0.9, -0.6,0,0,1024,1024,1024,1024,0,0,0,0,67.7,0,95,4.15,4.158,4.154,4.149,0,0,0,32,10834.255134754,-0.328084,6,P-GPS,
6800,2022-06-18 13:16:50,4.52534423178171,-73.7734274956484,-0.328084,,,10834.255134754,0.328084,0,0.78976052396,2.91607292796,9,4,16.631,10834.583218754,0,0,0.78976052396,0,0,0,68.6, -0.9, -0.5,0,0,1024,1024,1024,1024,0,0,0,0,67.7,0,95,4.156,4.164,4.158,4.153,0,0,0,32,10834.255134754,-0.328084,6,P-GPS,
6900,2022-06-18 13:16:50,4.52534431352708,-73.7734275153137,-0.328084,,,10834.255134754,0.328084,0,0.80863519648,2.94674550112,9,4,16.631,10834.583218754,0,0,0.80863519648,0,0,0,68.4, -1.1, -1,0,0,1024,1024,1053,1024,0,0,4,0,67.7,0,95,4.156,4.164,4.158,4.153,0,0,0,32,10834.255134754,-0.328084,6,P-GPS,
7000,2022-06-18 13:16:50,4.5253444160339,-73.7734274356973,-0.328084,,,10834.255134754,0.328084,0,0.79981629856,2.9940453714,9,4,16.631,10834.583218754,0,0,0.80863519648,0,0,0,68.1, -1.5, -1.6,0,0,1024,1024,1024,1024,0,0,0,0,67.7,0,95,4.156,4.164,4.158,4.153,0,0,0,32,10834.255134754,-0.328084,6,P-GPS,
7100,2022-06-18 13:16:50,4.52534452090449,-73.7734274487863,-0.328084,,,10834.255134754,0.328084,0,0.82294622056,3.03260180308,9,4,16.631,10834.583218754,0,0,0.82294622056,0,0,0,67.7, -1.4, -1.9,0,0,1024,1024,1077,1024,0,0,8,0,67.7,0,95,4.156,4.164,4.158,4.153,0,0,0,32,10834.255134754,-0.328084,6,P-GPS,
7200,2022-06-18 13:16:50,4.52534474904815,-73.773427569816,-0.328084,,,10834.255134754,0.328084,0,0.9047408426,3.12676191108,9,4,16.631,10834.583218754,0,0,0.9047408426,0,0,0,67.3, -1.4, -1.9,0,0,1024,1024,1041,1024,0,0,3,0,67.7,0,95,4.156,4.164,4.158,4.153,0,0,0,32,10834.255134754,-0.328084,6,P-GPS,
7300,2022-06-18 13:16:51,4.5253448452112,-73.7734275760217,-0.328084,,,10834.255134754,0.328084,0,0.92662076456,3.16191939252,9,4,16.631,10834.583218754,0,0,0.92662076456,0,0,0,67.2, -1.9, -1.9,0,0,1024,1024,1096,1024,0,0,11,0,67.7,0,95,4.156,4.164,4.158,4.153,0,0,0,32,10834.255134754,-0.328084,6,P-GPS,
7400,2022-06-18 13:16:51,4.52534506286363,-73.7734275025832,-0.328084,,,10834.255134754,0.328084,0,0.95458992556,3.2457022036,9,4,16.631,10834.583218754,0,0,0.95458992556,0,0,0,67.2, -2.2, -1.7,0,0,1024,1024,1205,1024,0,0,27,0,67.7,0,95,4.156,4.164,4.158,4.153,0,0,0,32,10834.255134754,-0.328084,6,P-GPS,
7500,2022-06-18 13:16:51,4.52534516688279,-73.7734274970667,-0.328084,,,10834.255134754,0.328084,0,0.9781660418,3.2836943308,9,4,16.631,10834.583218754,0,0,0.9781660418,0,0,0,67, -2.2, -1.3,0,0,1024,1024,1251,1024,0,0,34,0,67.7,0,95,4.156,4.164,4.158,4.153,0,0,0,32,10834.255134754,-0.328084,6,P-GPS,
7600,2022-06-18 13:16:51,4.52534521036704,-73.7734275968648,-0.328084,,,10834.255134754,0.328084,0,1.0157808724,3.323326878,9,4,16.631,10834.583218754,0,0,1.0157808724,0,0,0,66.7, -2.1, -1.1,0,0,1024,1024,1311,1024,0,0,43,0,67.7,0,95,4.156,4.164,4.158,4.153,0,0,0,32,10834.255134754,-0.328084,6,P-GPS,
7700,2022-06-18 13:16:51,4.52534530762609,-73.7734276155798,-0.328084,,,10834.255134754,0.328084,0,1.0446358602,3.3594489264,9,4,16.631,10834.583218754,0,0,1.0446358602,0,0,0,66.6, -2, -1.2,0,0,1024,1024,1306,1024,0,0,43,0,67.7,0,95,4.156,4.164,4.158,4.153,0,0,0,32,10834.255134754,-0.328084,6,P-GPS,
7800,2022-06-18 13:16:51,4.52534540016772,-73.7734274859017,-0.328084,,,10834.255134754,0.328084,0,1.03447509872,3.4174541776,9,4,16.631,10834.583218754,0,0,1.0446358602,0,0,0,66.5, -1.3, -1.3,0,0,1024,1024,1306,1024,0,0,43,0,67.7,0,95,4.155,4.164,4.159,4.153,0,0,0,32,10834.255134754,-0.328084,6,P-GPS,
7900,2022-06-18 13:16:51,4.52534550205642,-73.7734275135561,-0.328084,,,10834.255134754,0.328084,0,1.06833008668,3.4559712392,9,4,16.631,10834.583218754,0,0,1.06833008668,0,0,0,66.3, -0.5, -1.1,0,0,1024,1024,1299,1024,0,0,42,0,67.7,0,95,4.155,4.164,4.159,4.153,0,0,0,32,10834.255134754,-0.328084,6,P-GPS,
8000,2022-06-18 13:16:51,4.52534562572391,-73.7734275484136,-0.328084,,,10834.255134754,0.328084,0,1.11014439248,3.5028216344,9,4,16.631,10834.583218754,0,0,1.11014439248,0,0,0,66.1, -0.2, -0.8,0,0,1024,1024,1269,1024,0,0,37,0,67.7,0,95,4.155,4.164,4.159,4.153,0,0,0,32,10834.255134754,-0.328084,6,P-GPS,
8100,2022-06-18 13:16:51,4.52534573729467,-73.7734275383061,-0.328084,,,10834.255134754,0.328084,0,1.13833008892,3.5437009008,9,4,16.631,10834.583218754,0,0,1.13833008892,0,0,0,65.9, -0.4, -0.7,0,0,1024,1024,1273,1024,0,0,38,0,67.7,0,95,4.155,4.164,4.159,4.153,0,0,0,32,10834.255134754,-0.328084,6,P-GPS,
8200,2022-06-18 13:16:51,4.52534583659855,-73.7734274903843,-0.328084,,,10834.255134754,0.328084,0,1.15515423644,3.5839239992,9,4,16.631,10834.583218754,0,0,1.15515423644,0,0,0,65.7, -0.7, -0.3,0,0,1024,1024,1273,1024,0,0,38,0,67.7,0,95,4.155,4.164,4.159,4.153,0,0,0,32,10834.255134754,-0.328084,6,P-GPS,
8300,2022-06-18 13:16:52,4.52534593292107,-73.7734274894072,-0.328084,,,10834.255134754,0.328084,0,1.18258533968,3.6190617956,9,4,16.631,10834.583218754,0,0,1.18258533968,0,0,0,65.6, -0.7, -0.3,0,0,1024,1024,1273,1024,0,0,38,0,67.7,0,95,4.155,4.164,4.159,4.153,0,0,0,32,10834.255134754,-0.328084,6,P-GPS,
8400,2022-06-18 13:16:52,4.52534585883437,-73.773427454015,-0.328084,,,10834.255134754,0.328084,0,1.1533300894,3.6489830564,9,4,16.631,10834.583218754,0,0,1.18258533968,0,0,0,65.3, -0.5, -0.7,0,0,1024,1024,1279,1024,0,0,39,0,67.7,0,95,4.155,4.164,4.159,4.153,0,0,0,32,10834.255134754,-0.328084,6,P-GPS,
8500,2022-06-18 13:16:52,4.52534598209889,-73.77342750717,-0.328084,,,10834.255134754,0.328084,0,1.20075791244,3.6979331892,9,4,16.631,10834.583218754,0,0,1.20075791244,0,0,0,64.9, -0.7, -1,0,0,1024,1024,1280,1024,0,0,39,0,67.7,0,95,4.155,4.164,4.159,4.153,0,0,0,32,10834.255134754,-0.328084,6,P-GPS,
8600,2022-06-18 13:16:52,4.52534615098936,-73.773427465441,-0.328084,,,10834.255134754,0.328084,0,1.24155515784,3.7614174432,9,4,16.631,10834.583218754,0,0,1.24155515784,0,0,0,64.4, -0.9, -1.7,0,0,1024,1024,1280,1024,0,0,39,0,67.7,0,95,4.155,4.164,4.159,4.153,0,0,0,32,10834.255134754,-0.328084,6,P-GPS,
8700,2022-06-18 13:16:52,4.52534630164378,-73.7734275017544,-0.328084,,,10834.255134754,0.328084,0,1.29431106504,3.8179463164,9,4,16.631,10834.583218754,0,0,1.29431106504,0,0,0,64, -1.2, -1.6,0,0,1024,1024,1280,1024,0,0,39,0,67.7,0,95,4.155,4.164,4.159,4.153,0,0,0,32,10834.255134754,-0.328084,6,P-GPS,
8800,2022-06-18 13:16:52,4.52534630826474,-73.7734274869249,-0.328084,,,10834.255134754,0.328084,0,1.29330056632,3.8238518284,9,4,16.631,10834.583218754,0,0,1.29431106504,0,0,0,63.9, -0.2, -1,0,0,1024,1024,1274,1024,0,0,38,0,67.7,0,95,4.155,4.164,4.159,4.153,0,0,0,32,10834.255134754,-0.328084,6,P-GPS,
8900,2022-06-18 13:16:52,4.52534641628633,-73.7734274906688,-0.328084,,,10834.255134754,0.328084,0,1.3269521422,3.8632875252,9,4,16.166,10834.583218754,0,0,1.3269521422,0,0,0,64, 1.5, 0,0,0,1024,1024,1269,1024,0,0,37,0,67.7,0,95,4.043,4.048,4.041,4.034,0,0,0,32,10834.255134754,-0.328084,6,P-GPS,
9000,2022-06-18 13:16:52,4.52534640911091,-73.7734275343937,-0.328084,,,10834.255134754,0.328084,0,1.33348757548,3.8793964496,9,4,16.166,10834.583218754,0,0,1.33348757548,0,0,0,64, 2, 0.4,0,0,1024,1024,1270,1024,0,0,37,0,67.7,0,95,4.043,4.048,4.041,4.034,0,0,0,32,10834.255134754,-0.328084,6,P-GPS,
9100,2022-06-18 13:16:52,4.52534646395334,-73.7734275850234,-0.328084,,,10834.255134754,0.328084,0,1.3603510934,3.9065946132,9,4,16.166,10834.583218754,0,0,1.3603510934,0,0,0,64.1, 2.3, 0.9,0,0,1024,1024,1265,1024,0,0,37,0,67.7,0,95,4.043,4.048,4.041,4.034,0,0,0,32,10834.255134754,-0.328084,6,P-GPS,
9200,2022-06-18 13:16:52,4.52534641672245,-73.7734275738273,-0.328084,,,10834.255134754,0.328084,0,1.34377628972,3.9243111492,9,4,16.166,10834.583218754,0,0,1.3603510934,0,0,0,64.1, 2.3, 0.9,0,0,1024,1024,1269,1024,0,0,37,0,67.7,0,95,4.043,4.048,4.041,4.034,0,0,0,32,10834.255134754,-0.328084,6,P-GPS,
9300,2022-06-18 13:16:53,4.52534645498142,-73.7734276461234,-0.328084,,,10834.255134754,0.328084,0,1.37013127744,3.954068368,9,4,16.166,10834.583218754,0,0,1.37013127744,0,0,0,64.5, 1.8, 1.1,0,0,1024,1024,1266,1024,0,0,37,0,67.7,0,95,4.043,4.048,4.041,4.034,0,0,0,32,10834.255134754,-0.328084,6,P-GPS,
9400,2022-06-18 13:16:53,4.52534641610167,-73.7734276970827,-0.328084,,,10834.255134754,0.328084,0.223694,1.36918311468,3.9774279488,9,4,16.166,10834.583218754,0,0.223694,1.37013127744,0,-0.223694,0,65, 1.2, 1.1,0,0,1024,1024,1266,1024,0,0,37,0,67.7,0,95,4.043,4.048,4.041,4.034,0,0,0,32,10834.255134754,-0.328084,6,P-GPS,
9500,2022-06-18 13:16:53,4.52534643479955,-73.7734277998612,-0.328084,,,10834.255134754,0.328084,0,1.39673888984,4.015420076,9,4,16.166,10834.583218754,0,0.223694,1.39673888984,0,0,0,65.4, 0.5, 1.5,0,0,1024,1024,1271,1024,0,0,37,0,67.7,0,95,4.043,4.048,4.041,4.034,0,0,0,32,10834.255134754,-0.328084,6,P-GPS,
9600,2022-06-18 13:16:53,4.52534649785666,-73.7734279040763,-0.328084,,,10834.255134754,0.328084,0,1.43792327436,4.0597442244,9,4,16.166,10834.583218754,0,0.223694,1.43792327436,0,0,-0.223694,65.9, 0.2, 1.9,0,0,1024,1024,1265,1024,0,0,37,0,67.7,0,95,4.043,4.048,4.041,4.034,0,0,0,32,10834.255134754,-0.328084,6,P-GPS,
9700,2022-06-18 13:16:53,4.52534652215069,-73.7734280029756,-0.328084,,,10834.255134754,0.328084,0,1.46697183172,4.096784908,9,4,16.166,10834.583218754,0,0.223694,1.46697183172,0,-0.223694,-0.223694,66.5, -0.6, 2.2,0,0,1024,1024,1210,1024,0,0,28,0,67.7,0,95,4.043,4.048,4.041,4.034,0,0,0,32,10834.255134754,-0.328084,6,P-GPS,
9800,2022-06-18 13:16:53,4.5253464562385,-73.7734280172146,-0.328084,,,10834.255134754,0.328084,0.223694,1.45141736928,4.121391208,9,4,16.166,10834.583218754,0,0.223694,1.46697183172,0,-0.223694,-0.447388,67.1, -1.6, 2.4,0,0,1024,1024,1108,1024,0,0,13,0,67.7,0,95,4.043,4.048,4.041,4.034,0,0,0,32,10834.255134754,-0.328084,6,P-GPS,
9900,2022-06-18 13:16:53,4.52534645827478,-73.7734281297258,0,,,10834.583218754,0.328084,0.223694,1.47807419428,4.1623360912,9,4,15.553,10834.583218754,0,0.223694,1.47807419428,0,-0.223694,-0.671082,67.5, -2.5, 2.1,0,0,1024,1024,1088,1024,0,0,10,0,67.7,0,95,3.89,3.894,3.89,3.879,0,0,0,32,10834.583218754,0,6,P-GPS,
10000,2022-06-18 13:16:53,4.5253464159256,-73.7734281287799,0,,,10834.583218754,0.328084,0.223694,1.46608600492,4.1777888476,9,4,15.553,10834.583218754,0,0.223694,1.47807419428,0,-0.223694,-0.671082,67.6, -3.2, 1.9,0,0,1024,1024,1031,1024,0,0,1,0,67.7,0,95,3.89,3.894,3.89,3.879,0,0,0,32,10834.583218754,0,6,P-GPS,
10100,2022-06-18 13:16:53,4.52534641678935,-73.7734282225257,0,,,10834.583218754,0.656168,0.223694,1.4887303626,4.2118767752,9,4,15.553,10834.583218754,0,0.223694,1.4887303626,0,-0.223694,-0.447388,67.7, -3.2, 2.6,0,0,1024,1024,1024,1024,0,0,0,0,67.7,0,95,3.89,3.894,3.89,3.879,0,0,0,32,10834.583218754,0,6,P-GPS,
10200,2022-06-18 13:16:53,4.52534638943474,-73.7734283381495,0,,,10834.583218754,0.656168,0,1.50965227928,4.255085438,9,4,15.553,10834.583218754,0,0.223694,1.50965227928,0,0,-0.223694,67.6, -3.1, 1.9,0,0,1024,1024,1024,1024,0,0,0,0,67.7,0,95,3.89,3.894,3.89,3.879,0,0,0,32,10834.583218754,0,6,P-GPS,
10300,2022-06-18 13:16:53,4.52534637004705,-73.7734284140639,0,,,10834.583218754,0.656168,0,1.5235236708,4.2835959376,9,4,15.553,10834.583218754,0,0.223694,1.5235236708,0,0,-0.223694,67.7, -3, 1.1,0,0,1024,1024,1024,1024,0,0,0,0,67.7,0,95,3.89,3.894,3.89,3.879,0,0,0,32,10834.583218754,0,6,P-GPS,
10400,2022-06-18 13:16:54,4.52534637390555,-73.7734284773263,0,,,10834.583218754,6.233596,0,1.54058731964,4.3066602428,9,4,15.553,10834.583218754,0,0.223694,1.54058731964,0,0,0,67.7, -3, 1.1,0,0,1024,1024,1024,1024,0,0,0,0,67.7,0,95,3.89,3.894,3.89,3.879,0,0,0,32,10834.583218754,0,6,P-GPS,
10500,2022-06-18 13:16:54,4.52534638209294,-73.773428532213,0,,,10834.583218754,6.233596,0,1.55676842252,4.3268374088,9,4,15.553,10834.583218754,0,0.223694,1.55676842252,0,0,0,67.6, -2.9, 1.4,0,0,1024,1024,1024,1024,0,0,0,0,67.7,0,95,3.89,3.894,3.89,3.879,0,0,0,32,10834.583218754,0,6,P-GPS,
10600,2022-06-18 13:16:54,4.52534627241503,-73.7734287671358,0,,,10834.583218754,6.233596,0,1.59134847612,4.4211943672,9,4,15.553,10834.583218754,0,0.223694,1.59134847612,0,0,0,67.6, -2.8, 1.4,0,0,1024,1024,1024,1024,0,0,0,0,67.7,0,95,3.89,3.894,3.89,3.879,0,0,0,32,10834.583218754,0,6,P-GPS,
10700,2022-06-18 13:16:54,4.52534628919009,-73.7734288180542,0,,,10834.583218754,6.233596,0,1.60925202,4.4406825568,9,4,15.553,10834.583218754,0,0.223694,1.60925202,0,0,0,67.6, -2.5, 2,0,0,1024,1024,1024,1024,0,0,0,0,67.7,0,95,3.89,3.894,3.89,3.879,0,0,0,32,10834.583218754,0,6,P-GPS,
10800,2022-06-18 13:16:54,4.52534621291244,-73.7734289117076,0,,,10834.583218754,6.233596,0,1.61687669216,4.4846786212,9,4,15.553,10834.583218754,0,0.223694,1.61687669216,0,0,0,67.6, -2.3, 2.2,0,0,1024,1024,1024,1024,0,0,0,0,67.7,0,95,3.89,3.894,3.89,3.879,0,0,0,32,10834.583218754,0,6,P-GPS,
10900,2022-06-18 13:16:54,4.52534620928566,-73.7734289447807,0,,,10834.583218754,6.233596,0,1.6252625192,4.4967849208,9,4,15.564,10834.583218754,0,0.223694,1.6252625192,0,0,0,67.5, -2.2, 1.7,0,0,1024,1024,1024,1024,0,0,0,0,67.7,0,95,3.891,3.896,3.892,3.885,0,0,0,32,10834.583218754,0,6,P-GPS,
11000,2022-06-18 13:16:54,4.52534620188175,-73.7734289065798,0,,,10834.583218754,6.233596,0,1.612860944,4.5109253412,9,4,15.564,10834.583218754,0,0.223694,1.6252625192,0,0,0,67.5, -2, 1,0,0,1024,1024,1024,1024,0,0,0,0,67.7,0,95,3.891,3.896,3.892,3.885,0,0,0,32,10834.583218754,0,6,P-GPS,
11100,2022-06-18 13:16:54,4.52534618328501,-73.7734289320396,0,,,10834.583218754,6.233596,0,1.61564637716,4.5224082812,9,4,15.564,10834.583218754,0,0.223694,1.6252625192,0,0,0,67.4, -1.9, 0.8,0,0,1024,1024,1024,1024,0,0,0,0,67.7,0,95,3.891,3.896,3.892,3.885,0,0,0,32,10834.583218754,0,6,P-GPS,
11200,2022-06-18 13:16:54,4.52534629591165,-73.7734289918426,0,,,10834.583218754,6.233596,0,1.65867459376,4.568897784,9,4,15.564,10834.583218754,0,0.223694,1.65867459376,0,0,0,67.4, -1.6, 0.6,0,0,1194,1024,1024,1024,26,0,0,0,67.7,0,95,3.891,3.896,3.892,3.885,0,0,0,32,10834.583218754,0,6,P-GPS,
11300,2022-06-18 13:16:55,4.52534629160363,-73.7734290413557,0,,,10834.583218754,6.233596,0,1.6714731506,4.5869752124,9,4,15.564,10834.583218754,0,0.223694,1.6714731506,0,0,0,67.2, -1.7, 0.8,0,0,1348,1024,1024,1024,49,0,0,0,67.7,0,95,3.891,3.896,3.892,3.885,0,0,0,32,10834.583218754,0,6,P-GPS,
11400,2022-06-18 13:16:55,4.52534613690931,-73.773429027616,0,,,10834.583218754,6.233596,0,1.63206370052,4.6436353192,9,4,15.564,10834.583218754,0,0.223694,1.6714731506,0,0,0,67.2, -2.9, 1,0,0,1420,1024,1024,1024,60,0,0,0,67.7,0,95,3.891,3.896,3.892,3.885,0,0,0,32,10834.583218754,0,6,P-GPS,
11500,2022-06-18 13:16:55,4.52534613575766,-73.7734291025136,0,,,10834.583218754,6.233596,0,1.65327105028,4.6708990996,9,4,15.564,10834.583218754,0,0.223694,1.6714731506,0,0,0,67.1, -7, 1.3,0,0,1429,1024,1024,1024,61,0,0,0,67.7,0,95,3.891,3.896,3.892,3.885,0,0,0,32,10834.583218754,0,6,P-GPS,
11600,2022-06-18 13:16:55,4.52534622146857,-73.7734292133725,0,,,10834.583218754,6.233596,0,1.70429467396,4.7219161616,9,4,15.564,10834.583218754,0,0.223694,1.70429467396,0,0,0,66.9, -11.8, 1.6,0,0,1450,1024,1024,1024,65,0,0,0,67.7,0,95,3.891,3.896,3.892,3.885,0,0,0,32,10834.583218754,0,6,P-GPS,
11700,2022-06-18 13:16:55,4.52534630217522,-73.7734291502657,0,,,10834.583218754,6.233596,0.3131716,1.70455714116,4.7592521208,9,4,15.564,10834.583218754,0,0.3131716,1.70455714116,0.223694,0.223694,0,66.8, -14.8, 1.7,0,0,1422,1024,1024,1024,60,0,0,0,67.7,0,95,3.891,3.896,3.892,3.885,0,0,0,32,10834.583218754,0,6,P-GPS,
11800,2022-06-18 13:16:55,4.52534632399206,-73.7734287431134,0,,,10834.583218754,6.233596,0.8052984,1.5975066128,4.9075460888,9,4,15.564,10834.583218754,0,0.8052984,1.70455714116,0.447388,0.671082,0,66.7, -16.3, 2,0,0,1407,1024,1024,1024,58,0,0,0,67.7,0,95,3.891,3.896,3.892,3.885,0,0,0,32,10834.583218754,0,6,P-GPS,
11900,2022-06-18 13:16:55,4.52534653734081,-73.7734283291755,0,,,10834.583218754,6.233596,1.2079476,1.54737209676,5.0770342832,10,4,15.447,10834.583218754,0,1.2079476,1.70455714116,0.447388,1.11847,0,66.8, -16.2, 2.2,0,0,1325,1024,1024,1024,46,0,0,0,67.7,0,95,3.862,3.867,3.862,3.856,0,0,0,32,10834.583218754,0,6,P-GPS,
12000,2022-06-18 13:16:55,4.52534693636417,-73.7734277786998,0,,,10834.583218754,6.233596,1.7000744,1.54323823836,5.3246064696,10,4,15.447,10834.583218754,0,1.7000744,1.70455714116,0.671082,1.565858,0,66.8, -14.9, 2.3,0,0,1267,1024,1024,1024,37,0,0,0,67.7,0,95,3.862,3.867,3.862,3.856,0,0,0,32,10834.583218754,0,6,P-GPS,
12100,2022-06-18 13:16:55,4.52534729196695,-73.7734270179538,0,,,10834.583218754,6.233596,2.1922012,1.53484584964,5.6301839072,10,4,15.447,10834.583218754,0,2.1922012,1.70455714116,0.894776,2.013246,0,66.7, -12.4, 2.1,0,0,1259,1024,1024,1024,36,0,0,0,67.7,0,95,3.862,3.867,3.862,3.856,0,0,0,32,10834.583218754,0,6,P-GPS,
12200,2022-06-18 13:16:55,4.52534777064532,-73.7734260718679,0,,,10834.583218754,6.56168,2.4158952,1.62073824084,6.016076308,10,4,15.447,10834.583218754,0,2.4158952,1.70455714116,0.894776,2.23694,0,66.8, -9, 1.9,0,0,1282,1024,1024,1024,39,0,0,0,67.7,0,95,3.862,3.867,3.862,3.856,0,0,0,32,10834.583218754,0,6,P-GPS,
12300,2022-06-18 13:16:56,4.52534821754708,-73.7734250941487,0,,,10834.583218754,6.56168,2.7066974,1.77701121172,6.4072836696,10,4,15.447,10834.583218754,0,2.7066974,1.77701121172,1.11847,2.460634,0,66.8, -6.4, 2,0,0,1227,1024,1024,1024,31,0,0,0,67.7,0,95,3.862,3.867,3.862,3.856,0,0,0,32,10834.583218754,0,6,P-GPS,
12400,2022-06-18 13:16:56,4.52534875668608,-73.7734243458343,0,,,10834.583218754,6.233596,2.7066974,2.01214245284,6.743110452,10,4,15.447,10834.583218754,0,2.7066974,2.01214245284,1.11847,2.460634,0,66.8, -5.4, 2.2,0,0,1204,1024,1024,1024,27,0,0,0,67.7,0,95,3.862,3.867,3.862,3.856,0,0,0,32,10834.583218754,0,6,P-GPS,
12500,2022-06-18 13:16:56,4.52534923135971,-73.7734233252002,0,,,10834.583218754,6.233596,2.7066974,2.28282815704,7.152723326,10,4,15.447,10834.583218754,0,2.7066974,2.28282815704,1.11847,2.460634,0,66.8, -4.8, 2,0,0,1215,1024,1024,1024,29,0,0,0,67.7,0,95,3.862,3.867,3.862,3.856,0,0,0,32,10834.583218754,0,6,P-GPS,
12600,2022-06-18 13:16:56,4.52534970393405,-73.7734222255849,0,,,10834.583218754,6.233596,2.7066974,2.6026247552,7.588254836,10,4,15.447,10834.583218754,0,2.7066974,2.6026247552,1.11847,2.460634,0,66.7, -4.4, 1.9,0,0,1236,1024,1024,1024,32,0,0,0,67.7,0,95,3.862,3.867,3.862,3.856,0,0,0,32,10834.583218754,0,6,P-GPS,
12700,2022-06-18 13:16:56,4.52535018352002,-73.7734211833138,0,,,10834.583218754,6.233596,2.7066974,2.94313985796,8.0057745344,10,4,15.447,10834.583218754,0,2.7066974,2.94313985796,1.11847,2.460634,0,66.8, -4, 1.6,0,0,1412,1024,1024,1024,59,0,0,0,67.7,0,95,3.862,3.867,3.862,3.856,0,0,0,32,10834.583218754,0,6,P-GPS,
12800,2022-06-18 13:16:56,4.52535078555974,-73.7734202594185,0,,,10834.583218754,5.905512,2.7066974,3.3125329144,8.4072181168,10,4,15.447,10834.583218754,0,2.7066974,3.3125329144,1.11847,2.460634,0,66.8, -4, 1.5,0,0,1461,1024,1024,1024,66,0,0,0,67.7,0,95,3.862,3.867,3.862,3.856,0,0,0,32,10834.583218754,0,6,P-GPS,
12900,2022-06-18 13:16:56,4.52535129716742,-73.7734192276457,0,,,10834.583218754,5.905512,2.7066974,3.686679908,8.8263454268,10,4,15.529,10834.583218754,0,2.7066974,3.686679908,1.11847,2.460634,0,66.8, -7.1, 1.7,0,0,1434,1024,1024,1024,62,0,0,0,67.7,0,95,3.88,3.886,3.884,3.879,0,0,0,32,10834.583218754,0,6,P-GPS,
13000,2022-06-18 13:16:56,4.52535189083836,-73.7734182333932,0,,,10834.583218754,5.905512,2.908022,4.0834646976,9.24786775,10,4,15.529,10834.583218754,0,2.908022,4.0834646976,1.11847,2.684328,0,66.8, -11.3, 2,0,0,1432,1024,1024,1024,62,0,0,0,67.7,0,95,3.88,3.886,3.884,3.879,0,0,0,32,10834.583218754,0,6,P-GPS,
13100,2022-06-18 13:16:56,4.52535247712199,-73.7734170821668,0,,,10834.583218754,5.577428,3.1988242,4.5212599872,9.7180777388,10,4,15.529,10834.583218754,0,3.1988242,4.5212599872,1.342164,2.908022,0,66.6, -13.7, 2.1,0,0,1404,1024,1024,1024,58,0,0,0,67.7,0,95,3.88,3.886,3.884,3.879,0,0,0,32,10834.583218754,0,6,P-GPS,
13200,2022-06-18 13:16:56,4.52535296121724,-73.7734157195019,0,,,10834.583218754,5.577428,3.6238428,4.9930119708,10.2442260496,10,4,15.529,10834.583218754,0,3.6238428,4.9930119708,1.342164,3.35541,0,66.6, -14.3, 2.1,0,0,1389,1024,1024,1024,55,0,0,0,67.7,0,95,3.88,3.886,3.884,3.879,0,0,0,32,10834.583218754,0,6,P-GPS,
13300,2022-06-18 13:16:57,4.5253536409223,-73.7734142961471,0,,,10834.583218754,5.577428,3.914645,5.5391077888,10.818241816,10,4,15.529,10834.583218754,0,3.914645,5.5391077888,1.565858,3.579104,0,66.5, -13.3, 2.1,0,0,1384,1024,1024,1024,55,0,0,0,67.7,0,95,3.88,3.886,3.884,3.879,0,0,0,32,10834.583218754,0,6,P-GPS,
13400,2022-06-18 13:16:57,4.5253545929467,-73.7734127841528,0,,,10834.583218754,5.577428,4.3172942,6.180118308,11.468668346,10,4,15.529,10834.583218754,0,4.3172942,6.180118308,1.565858,4.026492,0,66.5, -11.8, 2.2,0,0,1374,1024,1024,1024,53,0,0,0,67.7,0,95,3.88,3.886,3.884,3.879,0,0,0,32,10834.583218754,0,6,P-GPS,
13500,2022-06-18 13:16:57,4.52535537565251,-73.773411124079,0,,,10834.583218754,5.249344,4.6080964,6.8240487748,12.1365817532,10,4,15.529,10834.583218754,0,4.6080964,6.8240487748,1.789552,4.250186,0,66.7, -11.1, 1.6,0,0,1374,1024,1024,1024,53,0,0,0,67.7,0,95,3.88,3.886,3.884,3.879,0,0,0,32,10834.583218754,0,6,P-GPS,
13600,2022-06-18 13:16:57,4.52535612713509,-73.7734094996143,0,,,10834.583218754,4.92126,4.809421,7.4549543068,12.7879597268,10,4,15.529,10834.583218754,0,4.809421,7.4549543068,1.789552,4.47388,0,66.7, -9.9, 1.4,0,0,1374,1024,1024,1024,53,0,0,0,67.7,0,95,3.88,3.886,3.884,3.879,0,0,0,32,10834.583218754,0,6,P-GPS,
13700,2022-06-18 13:16:57,4.52535699782085,-73.7734076800523,0,,,10834.583218754,4.92126,4.809421,8.1718506552,13.5220476768,10,4,15.529,10834.583218754,0,4.809421,8.1718506552,2.013246,4.697574,0,66.7, -8.7, 2,0,0,1374,1024,1024,1024,53,0,0,0,67.7,0,95,3.88,3.886,3.884,3.879,0,0,0,32,10834.583218754,0,6,P-GPS,
13800,2022-06-18 13:16:57,4.52535813297625,-73.773405937927,0,,,10834.583218754,4.92126,5.3239172,8.9268703644,14.27903589,10,4,15.529,10834.583218754,0,5.3239172,8.9268703644,2.013246,4.921268,0,66.6, -8, 2.5,0,0,1335,1024,1024,1024,47,0,0,0,67.7,0,95,3.88,3.886,3.884,3.879,0,0,0,32,10834.583218754,0,6,P-GPS,
13900,2022-06-18 13:16:57,4.52535905800726,-73.7734040030106,0,,,10834.583218754,4.92126,5.3239172,9.692913696,15.0595149176,10,4,15.44,10834.583218754,0,5.3239172,9.692913696,2.013246,4.921268,0,66.7, -7.9, 2,0,0,1275,1024,1024,1024,38,0,0,0,67.7,0,95,3.858,3.865,3.862,3.855,0,0,0,32,10834.583218754,0,6,P-GPS,
14000,2022-06-18 13:16:57,4.52535990985652,-73.773401858773,0,,,10834.583218754,22.96588,5.5252418,10.507874352,15.8990490652,10,4,15.44,10834.583218754,0,5.5252418,10.507874352,2.013246,5.144962,0,66.7, -6.6, 1.6,0,0,1273,1024,1024,1024,38,0,0,0,67.7,0,95,3.858,3.865,3.862,3.855,0,0,0,32,10834.583218754,0,6,P-GPS,
14100,2022-06-18 13:16:57,4.52536085450214,-73.7733998257195,0,,,10834.583218754,23.293964,5.5252418,11.3120410444,16.7148627396,10,4,15.44,10834.583218754,0,5.5252418,11.3120410444,2.013246,5.144962,0,66.9, -3.9, 2.1,0,0,1276,1024,1024,1024,38,0,0,0,67.7,0,95,3.858,3.865,3.862,3.855,0,0,0,32,10834.583218754,0,6,P-GPS,
14200,2022-06-18 13:16:57,4.52536178893693,-73.7733978314597,0,,,10834.583218754,23.293964,5.5252418,12.1039373952,17.5163391432,10,4,15.44,10834.583218754,0,5.5252418,12.1039373952,2.013246,5.144962,0,67, -2.1, 2,0,0,1276,1024,1024,1024,38,0,0,0,67.7,0,95,3.858,3.865,3.862,3.855,0,0,0,32,10834.583218754,0,6,P-GPS,
14300,2022-06-18 13:16:57,4.52536269505117,-73.7733958214127,0,,,10834.583218754,23.293964,5.5252418,12.89616183,18.3187013736,10,4,15.44,10834.583218754,0,5.5252418,12.89616183,2.013246,5.144962,0,67, -2.1, 1.6,0,0,1276,1024,1024,1024,38,0,0,0,67.7,0,95,3.858,3.865,3.862,3.855,0,0,0,32,10834.583218754,0,6,P-GPS,
14400,2022-06-18 13:16:58,4.52536365033143,-73.7733939297006,0,,,10834.583218754,23.293964,5.3239172,13.66305818,19.0899612408,10,4,15.44,10834.583218754,0,5.5252418,13.66305818,2.013246,4.921268,0,67.1, -2.7, 1.1,0,0,1279,1024,1024,1024,39,0,0,0,67.7,0,95,3.858,3.865,3.862,3.855,0,0,0,32,10834.583218754,0,6,P-GPS,
14500,2022-06-18 13:16:58,4.52536453442189,-73.7733919785734,0,,,10834.583218754,23.293964,5.3239172,14.4347445564,19.8694888248,10,4,15.44,10834.583218754,0,5.5252418,14.4347445564,2.013246,4.921268,0,67.2, -3.2, 0.7,0,0,1283,1024,1024,1024,39,0,0,0,67.7,0,95,3.858,3.865,3.862,3.855,0,0,0,32,10834.583218754,0,6,P-GPS,
14600,2022-06-18 13:16:58,4.52536545376836,-73.7733899662789,0,,,10834.583218754,23.293964,5.3239172,15.2329073116,20.6745741524,10,4,15.44,10834.583218754,0,5.5252418,15.2329073116,2.013246,4.921268,0,67, -3.8, 0.3,0,0,1283,1024,1024,1024,39,0,0,0,67.7,0,95,3.858,3.865,3.862,3.855,0,0,0,32,10834.583218754,0,6,P-GPS,
14700,2022-06-18 13:16:58,4.52536634637095,-73.7733880553052,0,,,10834.583218754,23.293964,5.3239172,15.9952761024,21.4421266704,10,4,15.44,10834.583218754,0,5.5252418,15.9952761024,2.013246,4.921268,0,66.9, -3.7, 0.3,0,0,1277,1024,1024,1024,38,0,0,0,67.7,0,95,3.858,3.865,3.862,3.855,0,0,0,32,10834.583218754,0,6,P-GPS,
14800,2022-06-18 13:16:58,4.52536707916471,-73.7733859815385,0,,,10834.583218754,23.293964,5.1002232,16.7785766524,22.2423563548,10,4,15.44,10834.583218754,0,5.5252418,16.7785766524,2.013246,4.697574,0,66.8, -3.3, 1.1,0,0,1271,1024,1024,1024,37,0,0,0,67.7,0,95,3.858,3.865,3.862,3.855,0,0,0,32,10834.583218754,0,6,P-GPS,
14900,2022-06-18 13:16:58,4.52536795447099,-73.7733840953407,0,,,10834.583218754,23.293964,5.1002232,17.5312341568,22.9990821008,10,4,15.455,10834.583218754,0,5.5252418,17.5312341568,2.013246,4.697574,0,66.8, -2.7, 1,0,0,1251,1024,1024,1024,34,0,0,0,67.7,0,95,3.862,3.869,3.865,3.859,0,0,0,32,10834.583218754,0,6,P-GPS,
15000,2022-06-18 13:16:58,4.52536889389987,-73.7733820870116,0,,,10834.583218754,23.293964,5.1002232,18.3343509804,23.8059718904,10,4,15.455,10834.583218754,0,5.5252418,18.3343509804,2.013246,4.697574,0,66.8, -2, 1,0,0,1200,1024,1024,1024,27,0,0,0,67.7,0,95,3.862,3.869,3.865,3.859,0,0,0,32,10834.583218754,0,6,P-GPS,
15100,2022-06-18 13:16:58,4.52536974731391,-73.7733802380613,0,,,10834.583218754,20.997376,5.033115,19.0719166208,24.5470480296,10,4,15.455,10834.583218754,0,5.5252418,19.0719166208,1.789552,4.697574,0,66.8, -1.8, 1,0,0,1090,1024,1024,1024,10,0,0,0,67.7,0,95,3.862,3.869,3.865,3.859,0,0,0,32,10834.583218754,0,6,P-GPS,
15200,2022-06-18 13:16:58,4.52537046197436,-73.7733783389881,0,,,10834.583218754,20.997376,4.809421,19.800197484,25.2853354548,10,4,15.455,10834.583218754,0,5.5252418,19.800197484,1.789552,4.47388,0,66.8, -1.5, 0.8,0,0,1024,1024,1024,1024,0,0,0,0,67.7,0,95,3.862,3.869,3.865,3.859,0,0,0,32,10834.583218754,0,6,P-GPS,
15300,2022-06-18 13:16:59,4.52537126142736,-73.7733765518378,0,,,10834.583218754,20.997376,4.809421,20.5091541996,25.9977698608,10,4,15.455,10834.583218754,0,5.5252418,20.5091541996,1.789552,4.47388,0,66.9, 0.2, 0.8,0,0,1024,1024,1024,1024,0,0,0,0,67.7,0,95,3.862,3.869,3.865,3.859,0,0,0,32,10834.583218754,0,6,P-GPS,
15400,2022-06-18 13:16:59,4.52537198685946,-73.7733746432435,0,,,10834.583218754,24.6063,4.3172942,21.2434718084,26.7407160788,10,4,15.455,10834.583218754,0,5.5252418,21.2434718084,1.565858,4.026492,0,67, 10.1, 0.1,0,0,1024,1024,1024,1024,0,0,0,0,67.7,0,95,3.862,3.869,3.865,3.859,0,0,0,32,10834.583218754,0,6,P-GPS,
15500,2022-06-18 13:16:59,4.52537268152851,-73.7733730868278,0,,,10834.583218754,24.6063,3.914645,21.8610899384,27.3609260724,10,4,15.455,10834.583218754,0,5.5252418,21.8610899384,1.565858,3.579104,0,66.8, 14.6, -0.8,0,0,1024,1024,1024,1024,0,0,0,0,67.7,0,95,3.862,3.869,3.865,3.859,0,0,0,32,10834.583218754,0,6,P-GPS,
15600,2022-06-18 13:16:59,4.52537336217215,-73.7733719438753,0,,,10834.583218754,24.6063,3.1988242,22.345145072,27.8451780564,10,4,15.455,10834.583218754,0,5.5252418,22.345145072,1.342164,2.908022,0,66.7, 15, -1.1,0,0,1024,1024,1024,1024,0,0,0,0,67.7,0,95,3.862,3.869,3.865,3.859,0,0,0,32,10834.583218754,0,6,P-GPS,
15700,2022-06-18 13:16:59,4.52537389413182,-73.7733709211774,0,,,10834.583218754,24.278216,2.5053728,22.7645020408,28.2647318756,10,4,15.455,10834.583218754,0,5.5252418,22.7645020408,1.11847,2.23694,0,66.8, 14.8, -0.3,0,0,1024,1024,1024,1024,0,0,0,0,67.7,0,95,3.862,3.869,3.865,3.859,0,0,0,32,10834.583218754,0,6,P-GPS,
15800,2022-06-18 13:16:59,4.52537426792238,-73.7733699125272,0,,,10834.583218754,24.278216,1.9908766,23.1512802684,28.6561032792,10,4,15.455,10834.583218754,0,5.5252418,23.1512802684,0.894776,1.789552,0,66.8, 13.4, 0.6,0,0,1024,1024,1024,1024,0,0,0,0,67.7,0,95,3.862,3.869,3.865,3.859,0,0,0,32,10834.583218754,0,6,P-GPS,
15900,2022-06-18 13:16:59,4.5253746238665,-73.7733693217809,0,,,10834.583218754,23.950132,1.2974252,23.4021661032,28.9071859644,10,4,15.431,10834.583218754,0,5.5252418,23.4021661032,0.671082,1.11847,0.223694,67.1, 11.5, 2.9,0,0,1024,1024,1024,1024,0,0,0,0,67.7,0,95,3.852,3.862,3.863,3.854,0,0,0,32,10834.583218754,0,6,P-GPS,
16000,2022-06-18 13:16:59,4.52537503655659,-73.773369104257,0,,,10834.583218754,23.950132,0.8052984,23.5448170264,29.07726471,10,4,15.431,10834.583218754,0,5.5252418,23.5448170264,0.447388,0.671082,0.223694,67.1, 8.3, 3.1,0,0,1024,1024,1024,1024,0,0,0,0,67.7,0,95,3.852,3.862,3.863,3.854,0,0,0,32,10834.583218754,0,6,P-GPS,
16100,2022-06-18 13:16:59,4.52537520311905,-73.7733688902289,0,,,10834.583218754,23.622048,0.4921268,23.6424876332,29.176017994,10,4,15.431,10834.583218754,0,5.5252418,23.6424876332,0.223694,0.447388,0.223694,67, 3.2, 1.9,0,0,1024,1024,1024,1024,0,0,0,0,67.7,0,95,3.852,3.862,3.863,3.854,0,0,0,32,10834.583218754,0,6,P-GPS,
16200,2022-06-18 13:16:59,4.52537541857999,-73.7733686265545,0,,,10834.583218754,23.622048,0.223694,23.7646333064,29.300033746,10,4,15.431,10834.583218754,0,5.5252418,23.7646333064,0,0.223694,0,66.7, -1.1, 1,0,0,1024,1024,1024,1024,0,0,0,0,67.7,0,95,3.852,3.862,3.863,3.854,0,0,0,32,10834.583218754,0,6,P-GPS,
16300,2022-06-18 13:17:00,4.52537552285014,-73.7733685429549,0,,,10834.583218754,23.622048,0,23.8098432816,29.3487214116,10,4,15.431,10834.583218754,0,5.5252418,23.8098432816,0,0,0,66.6, -2.6, 0.8,0,0,1024,1024,1024,1024,0,0,0,0,67.7,0,95,3.852,3.862,3.863,3.854,0,0,0,32,10834.583218754,0,6,P-GPS,
16400,2022-06-18 13:17:00,4.5253754435954,-73.7733684876054,0,,,10834.583218754,23.950132,0,23.8131241216,29.3839576332,10,4,15.431,10834.583218754,0,5.5252418,23.8131241216,0,0,0,66.6, -2.1, 1.2,0,0,1024,1024,1024,1024,0,0,0,0,67.7,0,95,3.852,3.862,3.863,3.854,0,0,0,32,10834.583218754,0,6,P-GPS,
16500,2022-06-18 13:17:00,4.52537552243913,-73.7733684114784,0,,,10834.583218754,23.950132,0,23.851378716,29.423885456,10,4,15.431,10834.583218754,0,5.5252418,23.851378716,0,0,0,66.6, -1.3, 1.3,0,0,1024,1024,1024,1024,0,0,0,0,67.7,0,95,3.852,3.862,3.863,3.854,0,0,0,32,10834.583218754,0,6,P-GPS,
16600,2022-06-18 13:17:00,4.52537579886955,-73.7733683876603,0,,,10834.583218754,23.950132,0,23.9086949908,29.52509937,10,4,15.431,10834.583218754,0,5.5252418,23.9086949908,0,0,0,66.5, -0.7, 0.6,0,0,1024,1024,1024,1024,0,0,0,0,67.7,-0.1,95,3.852,3.862,3.863,3.854,0,0,0,32,10834.583218754,0,6,P-GPS,
16700,2022-06-18 13:17:00,4.52537588786843,-73.7733683529853,0,,,10834.583218754,23.950132,0,23.9357291124,29.5599418908,11,4,15.431,10834.583218754,0,5.5252418,23.9357291124,0,0,0,66.3, -0.6, 0.7,0,0,1024,1024,1024,1024,0,0,0,0,67.7,-0.4,95,3.852,3.862,3.863,3.854,0,0,0,32,10834.583218754,0,6,P-GPS,
16800,2022-06-18 13:17:00,4.52537597227138,-73.773368434661,0,,,10834.583218754,23.950132,0,23.9252304244,29.6027240444,11,4,15.431,10834.583218754,0,5.5252418,23.9357291124,0,0,0,66.4, -0.4, 1.3,0,0,1024,1024,1024,1024,0,0,0,0,67.7,-0.8,95,3.852,3.862,3.863,3.854,0,0,0,32,10834.583218754,0,6,P-GPS,
16900,2022-06-18 13:17:00,4.52537605374166,-73.7733684571736,0,,,10834.583218754,23.950132,0,23.93290759,29.6335639404,11,4,15.355,10834.583218754,0,5.5252418,23.9357291124,0,0,0,66.3, -0.7, 1,0,0,1024,1024,1024,1024,0,0,0,0,67.7,-1.3,95,3.833,3.842,3.842,3.838,0,0,0,32,10834.583218754,0,6,P-GPS,
17000,2022-06-18 13:17:00,4.52537614428608,-73.7733683716413,0,,,10834.583218754,23.622048,0,23.9763459116,29.6789379576,11,4,15.355,10834.583218754,0,5.5252418,23.9763459116,0,0,0,66.2, -0.9, 1.3,0,0,1024,1024,1024,1024,0,0,0,0,67.7,-2,95,3.833,3.842,3.842,3.838,0,0,0,32,10834.583218754,0,6,P-GPS,
17100,2022-06-18 13:17:00,4.52537621290186,-73.7733684189426,0,,,10834.583218754,23.622048,0,23.9739508984,29.709318536,11,4,15.355,10834.583218754,0,5.5252418,23.9763459116,0,0,0,66.3, -1, 1.8,0,0,1024,1024,1024,1024,0,0,0,0,67.7,-2.8,95,3.833,3.842,3.842,3.838,0,0,0,32,10834.583218754,0,6,P-GPS,
17200,2022-06-18 13:17:00,4.52537614575668,-73.7733683854959,0,,,10834.583218754,23.622048,0,23.9722448616,29.7366807416,11,4,15.355,10834.583218754,0,5.5252418,23.9763459116,0,0,0,66.4, -1, 1.6,0,0,1024,1024,1024,1024,0,0,0,0,67.7,-3.8,95,3.833,3.842,3.842,3.838,0,0,0,32,10834.583218754,0,6,P-GPS,
17300,2022-06-18 13:17:01,4.5253761806618,-73.77336845062,0,,,10834.583218754,23.622048,0,23.9581044412,29.7635508212,11,4,15.355,10834.583218754,0,5.5252418,23.9763459116,0,0,0,66.5, -1.1, 1.8,0,0,1024,1024,1024,1024,0,0,0,0,67.7,-4.9,95,3.833,3.842,3.842,3.838,0,0,0,32,10834.583218754,0,6,P-GPS,
17400,2022-06-18 13:17:01,4.52537613709993,-73.773368461494,0,,,10834.583218754,23.622048,0,23.9467199264,29.7799550212,11,4,15.355,10834.583218754,0,5.5252418,23.9763459116,0,0,0,66.5, -1.4, 1.3,0,0,1024,1024,1024,1024,0,0,0,0,67.7,-6.1,95,3.833,3.842,3.842,3.838,0,0,0,32,10834.583218754,0,6,P-GPS,
17500,2022-06-18 13:17:01,4.52537613011718,-73.7733685349326,0,,,10834.583218754,23.622048,0,23.9223104768,29.806759484,11,4,15.355,10834.583218754,0,5.5252418,23.9763459116,0,0,0,66.5, -2.2, 1.1,0,0,1024,1024,1024,1024,0,0,0,0,67.7,-7.5,95,3.833,3.842,3.842,3.838,0,0,0,32,10834.583218754,0,6,P-GPS,
17600,2022-06-18 13:17:01,4.52537597181535,-73.773368628805,0,,,10834.583218754,23.622048,0,23.8639115248,29.873852662,11,4,15.355,10834.583218754,0,5.5252418,23.9763459116,0,0,0,66.4, -2.5, 0.6,0,0,1024,1024,1024,1024,0,0,0,0,67.7,-8.9,95,3.833,3.842,3.842,3.838,0,0,0,32,10834.583218754,0,6,P-GPS,
17700,2022-06-18 13:17:01,4.52537593837227,-73.7733686997441,0,,,10834.583218754,23.622048,0,23.835466642,29.90239597,11,4,15.355,10834.583218754,0,5.5252418,23.9763459116,0,0,0,66.4, -2.8, 0,0,0,1024,1024,1024,1024,0,0,0,0,67.7,-10.2,95,3.833,3.842,3.842,3.838,0,0,0,32,10834.583218754,0,6,P-GPS,
17800,2022-06-18 13:17:01,4.52537575139883,-73.7733685636809,0,,,10834.583218754,23.622048,0,23.844488952,29.9866807496,11,4,15.355,10834.583218754,0,5.5252418,23.9763459116,0,0,0,66.3, -2.9, -0.2,0,0,1024,1024,1024,1024,0,0,0,0,67.7,-11.4,95,3.833,3.842,3.842,3.838,0,0,0,32,10834.583218754,0,6,P-GPS,
17900,2022-06-18 13:17:01,4.52537573012953,-73.7733686027021,0,,,10834.583218754,23.622048,0,23.8283144108,30.0028552908,11,4,15.313,10834.583218754,0,5.5252418,23.9763459116,0,0,0,66.3, -2.9, 0.1,0,0,1024,1024,1024,1024,0,0,0,0,67.7,-12.4,95,3.825,3.833,3.83,3.825,0,0,0,32,10834.583218754,0,6,P-GPS,
18000,2022-06-18 13:17:01,4.52537568973797,-73.7733687539511,0,,,10834.583218754,23.622048,0,23.7732291072,30.0598106732,11,4,15.313,10834.583218754,0,5.5252418,23.9763459116,0,0,0,66.5, -2.8, 0.5,0,0,1024,1024,1024,1024,0,0,0,0,67.7,-13.3,95,3.825,3.833,3.83,3.825,0,0,0,32,10834.583218754,0,6,P-GPS,
18100,2022-06-18 13:17:01,4.52537568673038,-73.7733687686217,0,,,10834.583218754,23.622048,0,23.76804538,30.0652568676,11,4,15.313,10834.583218754,0,5.5252418,23.9763459116,0,0,0,66.6, -2.5, 0.7,0,0,1024,1024,1024,1024,0,0,0,0,67.7,-14.1,95,3.825,3.833,3.83,3.825,0,0,0,32,10834.583218754,0,6,P-GPS,
18200,2022-06-18 13:17:01,4.52537564930785,-73.773368736867,0,,,10834.583218754,23.622048,0,23.77132622,30.0831374456,11,4,15.313,10834.583218754,0,5.5252418,23.9763459116,0,0,0,66.6, -2, 0.9,0,0,1024,1024,1024,1024,0,0,0,0,67.7,-14.7,95,3.825,3.833,3.83,3.825,0,0,0,32,10834.583218754,0,6,P-GPS,
18300,2022-06-18 13:17:01,4.52537561589257,-73.7733687042362,0,,,10834.583218754,23.622048,0,23.775591312,30.1001650052,11,4,15.313,10834.583218754,0,5.5252418,23.9763459116,0,0,0,66.5, -1.6, 0,0,0,1024,1024,1024,1024,0,0,0,0,67.7,-15.1,95,3.825,3.833,3.83,3.825,0,0,0,32,10834.583218754,0,6,P-GPS,
18400,2022-06-18 13:17:02,4.52537546999998,-73.7733686975795,0,,,10834.583218754,23.622048,0.223694,23.7514115212,30.1534458468,11,4,15.313,10834.583218754,0,5.5252418,23.9763459116,-0.223694,0,0,66.4, -1.3, -0.7,0,0,1024,1024,1024,1024,0,0,0,0,67.7,-15.5,95,3.825,3.833,3.83,3.825,0,0,0,32,10834.583218754,0,6,P-GPS,
18500,2022-06-18 13:17:02,4.52537540710395,-73.7733686494794,0,,,10834.583218754,23.622048,0.223694,23.7553157208,30.1822844304,11,4,15.313,10834.583218754,0,5.5252418,23.9763459116,-0.223694,0,0,66.4, -1, -1.3,0,0,1024,1024,1024,1024,0,0,0,0,67.7,-15.7,95,3.825,3.833,3.83,3.825,0,0,0,32,10834.583218754,0,6,P-GPS,
18600,2022-06-18 13:17:02,4.52537525309409,-73.7733686124338,0,,,10834.583218754,23.622048,0.223694,23.7394692636,30.2400928312,11,4,15.313,10834.583218754,0,5.5252418,23.9763459116,-0.223694,0,0,66.4, -1.2, -1.6,0,0,1024,1024,1024,1024,0,0,0,0,67.7,-15.7,95,3.825,3.833,3.83,3.825,0,0,0,32,10834.583218754,0,6,P-GPS,
18700,2022-06-18 13:17:02,4.52537520577545,-73.7733685935974,0,,,10834.583218754,23.622048,0,23.7369758252,30.2586623856,11,4,15.313,10834.583218754,0,5.5252418,23.9763459116,0,0,0,66.4, -1.7, -1.5,0,0,1024,1024,1024,1024,0,0,0,0,67.7,-15.8,95,3.825,3.833,3.83,3.825,0,0,0,32,10834.583218754,0,6,P-GPS,
18800,2022-06-18 13:17:02,4.5253750491155,-73.7733683977184,0,,,10834.583218754,23.622048,0,23.7712934116,30.3500009712,11,4,15.313,10834.583218754,0,5.5252418,23.9763459116,0,0,0,66.6, -2.1, -1,0,0,1024,1024,1024,1024,0,0,0,0,67.7,-16,95,3.825,3.833,3.83,3.825,0,0,0,32,10834.583218754,0,6,P-GPS,
18900,2022-06-18 13:17:02,4.52537502594318,-73.7733683807717,0,,,10834.583218754,23.622048,0,23.7725729392,30.3604668508,11,4,15.313,10834.583218754,0,5.5252418,23.9763459116,0,0,0,66.5, -2, -0.9,0,0,1024,1024,1024,1024,0,0,0,0,67.7,-16.3,95,3.825,3.833,3.83,3.825,0,0,0,32,10834.583218754,0,6,P-GPS,
19000,2022-06-18 13:17:02,4.52537494669701,-73.7733685388578,0,,,10834.583218754,23.622048,0,23.7082684752,30.4248041232,11,4,15.328,10834.583218754,0,5.5252418,23.9763459116,0,0,0,66.5, -1.9, -1.2,0,0,1024,1024,1024,1024,0,0,0,0,67.7,-16.7,95,3.829,3.835,3.834,3.83,0,0,0,32,10834.583218754,0,6,P-GPS,
19100,2022-06-18 13:17:02,4.52537494096655,-73.7733685459011,0,,,10834.583218754,23.622048,0,23.7049876352,30.4281177716,11,4,15.328,10834.583218754,0,5.5252418,23.9763459116,0,0,0,66.4, -1.8, -1,0,0,1024,1024,1024,1024,0,0,0,0,67.7,-17.1,95,3.829,3.835,3.834,3.83,0,0,0,32,10834.583218754,0,6,P-GPS,
19200,2022-06-18 13:17:02,4.5253749486236,-73.7733684499242,0,,,10834.583218754,23.622048,0,23.7368774,30.4631243344,11,4,15.328,10834.583218754,0,5.5252418,23.9763459116,0,0,0,66.4, -2.1, -0.6,0,0,1024,1024,1024,1024,0,0,0,0,67.7,-17.3,95,3.829,3.835,3.834,3.83,0,0,0,32,10834.583218754,0,6,P-GPS,
19300,2022-06-18 13:17:03,4.52537496521778,-73.7733684610817,0,,,10834.583218754,20.997376,0,23.7362540404,30.4704406076,11,4,15.328,10834.583218754,0,5.5252418,23.9763459116,0,0,0,66.4, -2.2, -0.5,0,0,1024,1024,1024,1024,0,0,0,0,67.7,-17.4,95,3.829,3.835,3.834,3.83,0,0,0,32,10834.583218754,0,6,P-GPS,
